location_id,location_name,latitude,longitude,exact_coordinates,geometry,srid
1,Villa Grimaldi,-33.458244,-70.53889,True,0101000020E6100000000000207DA251C0000000C0A7BA40C0,4326
2,Santiago,-33.44889,-70.66927,False,0101000020E610000000000060D5AA51C00000004075B940C0,4326
3,Medical Legal Institue,-33.484123,-70.64641,True,0101000020E6100000000000C05EA951C0000000C0F7BD40C0,4326
4,Londres No.38,-33.44432,-70.64819,True,0101000020E6100000000000007CA951C000000080DFB840C0,4326
5,Cuatro Alamos,-33.51607,-70.75135,True,0101000020E61000000000002016B051C0000000A00EC240C0,4326
6,San Bernardo Infantry Regiment,-33.585205,-70.70082,True,0101000020E610000000000040DAAC51C000000000E8CA40C0,4326
7,Medical Legal Institute,-33.484123,-70.64641,True,0101000020E6100000000000C05EA951C0000000C0F7BD40C0,4326
8,La Moneda Palace,-33.442917,-70.65391,True,0101000020E6100000000000A0D9A951C000000080B1B840C0,4326
9,Chile Stadium,-33.450516,-70.67477,True,0101000020E6100000000000602FAB51C000000080AAB940C0,4326
10,Paine substation,-33.8075,-70.74139,True,0101000020E6100000000000E072AF51C0000000205CE740C0,4326
11,Pisagua prison camp,-19.59667,-70.21222,True,0101000020E610000000000000958D51C000000060BF9833C0,4326
12,La Venda Sexy,-33.48295,-70.58758,True,0101000020E6100000000000E09AA551C000000040D1BD40C0,4326
13,in the streets of Santiago,-33.44889,-70.66927,False,0101000020E610000000000060D5AA51C00000004075B940C0,4326
14,Chillán,-36.60626,-72.10234,False,0101000020E6100000000000C08C0652C0000000E0994D42C0,4326
15,Calama jail,-22.468716,-68.926636,True,0101000020E6100000000000004E3B51C0000000C0FD7736C0,4326
16,"Campo Lindo agricultural cooperative, 24 de Abril cooperative, Nuevo Sendero cooperative",-38.61668,-72.38339,False,0101000020E610000000000080891852C000000060EF4E43C0,4326
17,Cerro Chena prison,-33.594036,-70.74274,False,0101000020E61000000000000089AF51C00000006009CC40C0,4326
18,José Domingo Cañas,-33.45646,-70.61239,True,0101000020E61000000000006031A751C0000000406DBA40C0,4326
19,"San Juan Estate, located on the road between Laja and Yumbel",-37.17775,-72.56426,False,0101000020E6100000000000E01C2452C000000080C09642C0,4326
20,Valdivia,-39.81738,-73.24253,False,0101000020E6100000000000A0854F52C0000000E09FE843C0,4326
21,Cerro Chena detention site,-33.594036,-70.74274,False,0101000020E61000000000000089AF51C00000006009CC40C0,4326
22,Baños de Chihuío estate (civilian property),-40.12454,-72.38085,True,0101000020E6100000000000E05F1852C0000000E0F00F44C0,4326
23,downtown Santiago,-33.44889,-70.66927,False,0101000020E610000000000060D5AA51C00000004075B940C0,4326
24,Arica Regiment,-29.90528,-71.23861,True,0101000020E61000000000006045CF51C000000060C0E73DC0,4326
25,Toltén River Bridge,-38.975548,-72.63464,True,0101000020E6100000000000009E2852C0000000C0DE7C43C0,4326
26,Temuco,-38.7359,-72.59037,False,0101000020E6100000000000A0C82552C000000000325E43C0,4326
27,Los Angeles Regiment,-37.457447,-72.35621,True,0101000020E610000000000020CC1652C0000000A08DBA42C0,4326
28,Chillán regiment,-36.60111,-72.08417,True,0101000020E610000000000000630552C000000020F14C42C0,4326
29,La Legua shantytown,-33.48722,-70.63556,False,0101000020E610000000000000ADA851C0000000405DBE40C0,4326
30,Antofagasta jail,-23.653742,-70.39173,True,0101000020E610000000000020129951C0000000A05BA737C0,4326
31,Tucapel Regiment,-38.74365,-72.59228,True,0101000020E6100000000000E0E72552C0000000E02F5F43C0,4326
32,Parral city jail,-36.144253,-71.82249,True,0101000020E6100000000000A0A3F451C0000000E0761242C0,4326
33,Isla de Maipo police HQ,-33.74989,-70.902794,True,0101000020E610000000000060C7B951C000000060FCDF40C0,4326
34,Lonquén lime ovens,-33.704082,-70.823006,True,0101000020E610000000000020ACB451C0000000601FDA40C0,4326
35,Calama police station,-22.459698,-68.9284,True,0101000020E6100000000000E06A3B51C0000000C0AE7536C0,4326
36,"Buenos Aires, Argentina",-34.60368,-58.38156,False,0101000020E610000000000000D7304DC000000060454D41C0,4326
37,Paine area,-33.812572,-70.737595,False,0101000020E6100000000000C034AF51C00000006002E840C0,4326
38,Tocopilla police station,-22.092983,-70.20041,True,0101000020E610000000000080D38C51C0000000C0CD1736C0,4326
38,Tocopilla police station,-22.092983,-70.20041,False,0101000020E610000000000080D38C51C0000000C0CD1736C0,4326
39,Sixth Telecommunications Regiment in Iquique,-20.21611,-70.13306,True,0101000020E610000000000000848851C000000000533734C0,4326
40,Laja police station,-37.27745,-72.71648,True,0101000020E6100000000000C0DA2D52C00000008083A342C0,4326
41,San Bernardo,-33.58545,-70.69874,False,0101000020E610000000000020B8AC51C000000000F0CA40C0,4326
42,along the road between Calama and Antofagasta,-23.110638,-69.5233,True,0101000020E6100000000000C07D6151C0000000C0521C37C0,4326
43,along the road between Calama and Antofagasta,-22.969467,-69.379486,False,0101000020E610000000000080495851C0000000002FF836C0,4326
44,Iquique,-20.2307,-70.13567,False,0101000020E6100000000000E0AE8851C0000000200F3B34C0,4326
45,Santa Bárbara police unit,-37.67003,-72.02661,True,0101000020E610000000000000B40152C000000080C3D542C0,4326
46,Los Angeles regiment,-37.457447,-72.35621,True,0101000020E610000000000020CC1652C0000000A08DBA42C0,4326
47,Province of Concepción,-36.82014,-73.04439,False,0101000020E610000000000040D74252C000000060FA6842C0,4326
48,Parral police station,-36.144318,-71.82252,True,0101000020E610000000000020A4F451C000000000791242C0,4326
49,"Mapocho River, Bulnes Bridge",-33.426575,-70.671425,True,0101000020E6100000000000A0F8AA51C0000000009AB640C0,4326
50,La Serena jail,-29.978672,-71.21661,True,0101000020E610000000000000DDCD51C0000000408AFA3DC0,4326
51,Isla de Maipo area,-33.74639,-70.90033,False,0101000020E6100000000000009FB951C0000000C089DF40C0,4326
52,Tejas Verdes,-33.61964,-71.60417,True,0101000020E6100000000000C0AAE651C00000006050CF40C0,4326
53,Copiacó regiment (now known as the Capitan Rafael Toreblanca Regiment),-27.37465,-70.318375,True,0101000020E610000000000040609451C000000000E95F3BC0,4326
54,Calama,-22.45439,-68.92938,False,0101000020E6100000000000007B3B51C0000000E0527436C0,4326
55,Temuco jail,-38.73291,-72.593834,True,0101000020E610000000000060012652C000000000D05D43C0,4326
56,Conchalí district,-33.38469,-70.68002,False,0101000020E61000000000008085AB51C0000000803DB140C0,4326
57,Colina Air Base,-33.220623,-70.687645,True,0101000020E61000000000006002AC51C0000000603D9C40C0,4326
58,Dupont explosives plant belonging to ENAEX,-22.515,-68.94806,True,0101000020E610000000000000AD3C51C000000000D78336C0,4326
59,Dupont police station,-22.50389,-68.93083,False,0101000020E6100000000000C0923B51C0000000E0FE8036C0,4326
60,Tocopilla,-22.0858,-70.19301,False,0101000020E6100000000000405A8C51C000000000F71536C0,4326
61,Osorno,-40.57619,-73.11495,False,0101000020E6100000000000605B4752C0000000A0C04944C0,4326
62,Trafún,-40.43334,-72.91554,False,0101000020E610000000000040983A52C0000000A0773744C0,4326
63,around the city of Lautaro,-38.516666,-72.45,False,0101000020E6100000000000C0CC1C52C000000020224243C0,4326
64,Linares Artillery School,-35.84007,-71.59117,True,0101000020E6100000000000C0D5E551C00000006087EB41C0,4326
65,machine shop of the train yard in San Bernardo,-33.5593,-70.69517,False,0101000020E6100000000000A07DAC51C00000002097C740C0,4326
66,in the street,-33.44889,-70.66927,False,0101000020E610000000000060D5AA51C00000004075B940C0,4326
67,Central Emergency Clinic,-33.443924,-70.638275,True,0101000020E610000000000080D9A851C000000080D2B840C0,4326
68,Las Condes district,-33.399014,-70.557304,False,0101000020E6100000000000E0AAA351C0000000E012B340C0,4326
69,Viña del Mar,-33.01535,-71.55003,False,0101000020E6100000000000C033E351C000000000F78140C0,4326
70,Antofagasta,-23.65093,-70.3975,False,0101000020E6100000000000A0709951C000000060A3A637C0,4326
71,Pilmaiquén police station,-40.65,-72.6167,False,0101000020E610000000000000782752C000000040335344C0,4326
72,near Pucón,-39.27225,-71.97763,False,0101000020E61000000000008091FE51C000000020D9A243C0,4326
73,Carmen y Maitenes estate,-37.57016,-72.07443,False,0101000020E610000000000080C30452C000000000FBC842C0,4326
74,in a meadow near the Carmen y Maintenes estate,-37.57016,-72.07443,False,0101000020E610000000000080C30452C000000000FBC842C0,4326
75,Los Angeles,-37.46292,-72.36123,False,0101000020E6100000000000601E1752C00000000041BB42C0,4326
76,Parral,-36.13996,-71.82444,False,0101000020E6100000000000A0C3F451C000000040EA1142C0,4326
77,Buenos Aires,-34.60368,-58.38156,False,0101000020E610000000000000D7304DC000000060454D41C0,4326
78,Police station No.20,-33.60743,-70.575325,True,0101000020E610000000000020D2A451C000000040C0CD40C0,4326
79,Los Sauces de Puente Alto recreation park,-33.55139,-70.57444,False,0101000020E6100000000000A0C3A451C00000000094C640C0,4326
80,Barros Luco Hospital,-33.484123,-70.64641,True,0101000020E6100000000000C05EA951C0000000C0F7BD40C0,4326
80,Barros Luco Hospital,-33.484123,-70.64641,False,0101000020E6100000000000C05EA951C0000000C0F7BD40C0,4326
81,southern part of Santiago,-33.44889,-70.66927,False,0101000020E610000000000060D5AA51C00000004075B940C0,4326
82,San Gregorio shantytown,-33.40528,-70.72444,False,0101000020E6100000000000405DAE51C000000040E0B340C0,4326
83,Valparaíso,-33.04724,-71.61269,False,0101000020E61000000000006036E751C0000000000C8640C0,4326
84,Cavalry School,-32.912987,-71.231865,False,0101000020E6100000000000E0D6CE51C0000000C0DC7440C0,4326
85,San Felipe jail,-32.7558,-70.727486,True,0101000020E6100000000000208FAE51C000000000BE6040C0,4326
86,Copiacó jail,-27.36658,-70.33216,False,0101000020E610000000000020429551C000000020D85D3BC0,4326
87,Copiapó (Atacama region),-27.36658,-70.33216,False,0101000020E610000000000020429551C000000020D85D3BC0,4326
88,Lautaro,-38.50843,-72.45413,False,0101000020E610000000000080101D52C000000040144143C0,4326
89,"Bío Bío river, bridge that crosses into the Quilaco",-37.67271,-72.00026,True,0101000020E610000000000040040052C0000000601BD642C0,4326
90,Antuco police station,-37.33132,-71.67643,False,0101000020E6100000000000A04AEB51C0000000C068AA42C0,4326
91,Parral police station,-36.139957,-71.824265,True,0101000020E6100000000000C0C0F451C000000020EA1142C0,4326
92,Camp No.2 (Tejas Verdes),-33.61964,-71.60417,True,0101000020E6100000000000C0AAE651C00000006050CF40C0,4326
93,San Miguel district,-33.49454,-70.65142,False,0101000020E6100000000000E0B0A951C0000000204DBF40C0,4326
94,Ramón Barros Luco Hospital,-33.484123,-70.64641,True,0101000020E6100000000000C05EA951C0000000C0F7BD40C0,4326
95,district of Peñalolén,-33.47191,-70.56279,False,0101000020E6100000000000C004A451C00000008067BC40C0,4326
96,"""The Company""",-33.449745,-70.657616,True,0101000020E61000000000006016AA51C00000004091B940C0,4326
97,Calle Pedro Donoso in the Conchalí district,-33.397484,-70.64057,False,0101000020E610000000000020FFA851C0000000C0E0B240C0,4326
98,on the road between Puerto Montt and the beach resort at Pelluco,-41.47785,-72.91665,False,0101000020E610000000000060AA3A52C0000000402ABD44C0,4326
99,Llanquihue,-41.26063,-73.00784,False,0101000020E610000000000080804052C0000000605CA144C0,4326
100,"Maquehua Air Base, in Temuco",-38.770126,-72.638306,True,0101000020E610000000000000DA2852C000000080936243C0,4326
101,public thoroughfare,-36.82014,-73.04439,False,0101000020E610000000000040D74252C000000060FA6842C0,4326
102,police station on the road to Ñuble,-36.626682,-72.09374,False,0101000020E6100000000000E0FF0552C000000020375042C0,4326
103,Linares jail,-35.84908,-71.59934,True,0101000020E6100000000000A05BE651C0000000A0AEEC41C0,4326
104,Talca,-35.42324,-71.64848,False,0101000020E6100000000000C080E951C0000000C02CB641C0,4326
105,"the area of Atalaya, on the road between San Antonio and Bucalemu",-33.797295,-71.61099,False,0101000020E6100000000000801AE751C0000000C00DE640C0,4326
106,Maipo Bridge,-33.68992,-70.7234,True,0101000020E6100000000000204CAE51C0000000404FD840C0,4326
107,San Antonio prison camp,-33.59822,-71.61238,True,0101000020E61000000000004031E751C00000008092CC40C0,4326
108,La Granja district in Santiago,-33.53779,-70.62068,False,0101000020E610000000000040B9A751C000000040D6C440C0,4326
109,hills of Rinconada de Maipú,-33.493458,-70.81927,False,0101000020E6100000000000E06EB451C0000000A029BF40C0,4326
110,Kilometer 12 of the highway from Santiago to Valparaiso by the Lo Prado Tunnel,-33.457367,-70.9428,False,0101000020E6100000000000E056BC51C0000000008BBA40C0,4326
111,police hospital,-33.449955,-70.60904,True,0101000020E610000000000080FAA651C00000002098B940C0,4326
112,public thoroughfare,-33.44889,-70.66927,False,0101000020E610000000000060D5AA51C00000004075B940C0,4326
113,Santiago Pino squatter settlement in the Puduhuel (formerly Barrancas) district,-33.44306,-70.76139,False,0101000020E6100000000000A0BAB051C000000040B6B840C0,4326
114,San Juan de Dios Hospital,-33.4424,-70.679,True,0101000020E6100000000000C074AB51C0000000A0A0B840C0,4326
115,High-rise No.12 of the San Borja apartment complex,-33.44064,-70.636024,True,0101000020E6100000000000A0B4A851C0000000E066B840C0,4326
116,Roosevelt shantytown,-33.43278,-70.7375,False,0101000020E61000000000004033AF51C00000006065B740C0,4326
117,José Joaquín Aguirre Hospital,-33.420486,-70.6532,True,0101000020E610000000000000CEA951C000000080D2B540C0,4326
118,"Las Coimas, San Felipe",-32.750546,-70.72434,False,0101000020E6100000000000A05BAE51C0000000E0116040C0,4326
119,Tocopilla jail,-22.062607,-70.18648,True,0101000020E610000000000040EF8B51C000000000071036C0,4326
120,Entre Lagos police station,-40.685974,-72.60416,True,0101000020E610000000000080AA2652C000000000CE5744C0,4326
121,"Rahue Third police station, Osorno",-40.574677,-73.14973,True,0101000020E610000000000020954952C0000000008F4944C0,4326
122,Pitrufquén police station,-38.98652,-72.63298,True,0101000020E6100000000000C0822852C000000040467E43C0,4326
123,Lautaro police station,-38.50843,-72.45413,False,0101000020E610000000000080101D52C000000040144143C0,4326
124,Pemehue estate,-37.7179,-72.23741,False,0101000020E6100000000000C0310F52C000000020E4DB42C0,4326
125,El Morro estate (located in the mountains to the east of Mulchén),-37.71456,-72.39671,False,0101000020E6100000000000C0631952C0000000C076DB42C0,4326
126,Bío Bío river,-37.67271,-72.00026,True,0101000020E610000000000040040052C0000000601BD642C0,4326
127,area of La Playita,-37.66944,-72.58889,False,0101000020E610000000000060B02552C000000040B0D542C0,4326
128,Renaico River,-37.661423,-72.57982,False,0101000020E6100000000000C01B2552C000000080A9D442C0,4326
129,San Alfonso neighborhood,-37.46292,-72.36123,False,0101000020E6100000000000601E1752C00000000041BB42C0,4326
130,Concepción,-36.82014,-73.04439,False,0101000020E610000000000040D74252C000000060FA6842C0,4326
131,"Second Police station, Chillán",-36.60277,-72.106735,True,0101000020E6100000000000C0D40652C0000000A0274D42C0,4326
132,near El Ala Bridge over the Ñuble river,-36.57528,-72.21306,True,0101000020E6100000000000C0A20D52C0000000C0A24942C0,4326
133,San Javier,-35.5931,-71.7325,False,0101000020E610000000000040E1EE51C0000000C0EACB41C0,4326
134,Cepillos Hill,-34.136784,-71.04696,False,0101000020E61000000000006001C351C000000020821141C0,4326
135,La Aguachera athelitic field in the area of Pintué,-33.87389,-70.87889,False,0101000020E6100000000000C03FB851C0000000A0DBEF40C0,4326
136,El Escorial vineyard,-33.85778,-70.6175,False,0101000020E61000000000002085A751C0000000C0CBED40C0,4326
137,athletic field in Pintué,-33.84833,-70.88944,False,0101000020E6100000000000A0ECB851C00000002096EC40C0,4326
138,Paine,-33.812572,-70.737595,False,0101000020E6100000000000C034AF51C00000006002E840C0,4326
139,Paine soccer field,-33.81257,-70.7376,False,0101000020E6100000000000E034AF51C00000004002E840C0,4326
140,Paine substation,-33.809498,-70.738144,True,0101000020E6100000000000C03DAF51C0000000A09DE740C0,4326
141,Lo Arcaya Cooperative,-33.69333,-70.57167,False,0101000020E61000000000004096A451C000000000BFD840C0,4326
142,Melipilla,-33.68616,-71.21668,False,0101000020E610000000000020DECD51C000000020D4D740C0,4326
143,Nido 20,-33.52396,-70.66158,True,0101000020E61000000000006057AA51C00000002011C340C0,4326
144,a building located at Calle Conferencia No. 1587,-33.46822,-70.67427,True,0101000020E61000000000004027AB51C0000000A0EEBB40C0,4326
145,Elecmetal factory,-33.463764,-70.62742,False,0101000020E6100000000000A027A851C0000000A05CBB40C0,4326
146,San Borja Hospital,-33.460934,-70.64175,True,0101000020E61000000000006012A951C0000000E0FFBA40C0,4326
147,Downtown Santiago,-33.44889,-70.66927,False,0101000020E610000000000060D5AA51C00000004075B940C0,4326
148,parents' home,-33.44889,-70.66927,False,0101000020E610000000000060D5AA51C00000004075B940C0,4326
149,"Central Emergency Clinic, Santiago",-33.443924,-70.638275,True,0101000020E610000000000080D9A851C000000080D2B840C0,4326
150,San Pablo police station,-33.44317,-70.715805,True,0101000020E6100000000000C0CFAD51C0000000C0B9B840C0,4326
151,"Manuel Larraín shantytown, Pudahuel district",-33.44211,-70.76406,False,0101000020E610000000000060E6B051C00000000097B840C0,4326
152,cultural centre in Pudahuel (Barrancas),-33.439278,-70.639755,True,0101000020E6100000000000C0F1A851C0000000403AB840C0,4326
153,Barros Arana Public School,-33.438194,-70.68212,True,0101000020E6100000000000E0A7AB51C0000000C016B840C0,4326
154,"Barriga upgrade, near Curavaví",-33.39772,-71.12752,False,0101000020E61000000000004029C851C000000080E8B240C0,4326
155,Arrested in Curacaví and taken to police headquarters in Curacaví,-33.395847,-71.12966,False,0101000020E6100000000000604CC851C000000020ABB240C0,4326
156,Lot no.38 of El Arrayán,-33.34674,-70.4752,False,0101000020E6100000000000A0699E51C00000000062AC40C0,4326
157,Peldehue,-33.17128,-70.63133,False,0101000020E6100000000000C067A851C000000080EC9540C0,4326
158,Illapel jail,-31.63334,-71.17014,True,0101000020E6100000000000A0E3CA51C0000000A022A23FC0,4326
159,"Lintz neighborhood, in the city of Puerto Montt",-41.46778,-72.9225,False,0101000020E6100000000000400A3B52C000000040E0BB44C0,4326
160,Entre Lagos police station,-40.68556,-72.60243,False,0101000020E6100000000000408E2652C000000060C05744C0,4326
161,suspension bridge over the Pilmaiquén river,-40.67961,-72.60395,False,0101000020E610000000000020A72652C000000080FD5644C0,4326
162,Pilmaiquén River,-40.65847,-72.63078,False,0101000020E6100000000000C05E2852C0000000C0485444C0,4326
163,"Rahue police station, Osorno",-40.564743,-73.15249,True,0101000020E610000000000060C24952C000000080494844C0,4326
164,Lago Ranco,-40.32116,-72.48221,False,0101000020E610000000000080DC1E52C0000000C01B2944C0,4326
165,Lago Ranco police headquarters,-40.32116,-72.48221,False,0101000020E610000000000080DC1E52C0000000C01B2944C0,4326
166,Ranco Lake,-40.18264,-72.40214,False,0101000020E6100000000000A0BC1952C0000000C0601744C0,4326
167,Neltume. Tenth Region,-39.79995,-71.94998,False,0101000020E610000000000080CCFC51C0000000C064E643C0,4326
168,In the area of Liquiñe within the Panguipulli Lumber and Forestry Complex,-39.74513,-71.85772,False,0101000020E6100000000000E0E4F651C00000006060DF43C0,4326
169,Malalhue checkpoint,-39.54006,-72.51296,False,0101000020E610000000000060D42052C0000000A020C543C0,4326
170,Lanco police headquarters,-39.45102,-72.77962,False,0101000020E610000000000040E53152C000000000BBB943C0,4326
171,Allipen river,-38.861473,-71.68749,False,0101000020E6100000000000E0FFEB51C0000000C0446E43C0,4326
172,Puerto Saavedra,-38.7833,-73.4,False,0101000020E6100000000000A0995952C000000020436443C0,4326
173,Galvarino,-38.40886,-72.78212,False,0101000020E6100000000000400E3252C000000080553443C0,4326
174,Quilaco police station,-37.68755,-71.99866,False,0101000020E610000000000000EAFF51C0000000A001D842C0,4326
175,Las Canteras estate,-37.39472,-72.00278,False,0101000020E6100000000000802D0052C00000002086B242C0,4326
176,El Toro plant,-37.323845,-71.56443,False,0101000020E6100000000000A01FE451C0000000C073A942C0,4326
177,Laja River,-37.28862,-71.72512,False,0101000020E61000000000006068EE51C000000080F1A442C0,4326
178,highway between Concepción and Talcahuano,-36.772682,-73.08143,False,0101000020E610000000000020364552C000000040E76242C0,4326
179,Fort Borgoño marine base (DIM No.3 Aldea),-36.704643,-73.11364,True,0101000020E6100000000000E0454752C0000000C0315A42C0,4326
180,the El Tejar neighborhood of Chillán,-36.61917,-72.12111,False,0101000020E610000000000040C00752C000000000414F42C0,4326
181,"Second Police station, Chillán",-36.602734,-72.10677,True,0101000020E610000000000060D50652C000000060264D42C0,4326
182,Chillán Regiment,-36.60054,-72.08863,True,0101000020E610000000000020AC0552C000000080DE4C42C0,4326
183,Niblinto checkpoint,-36.57444,-71.78271,False,0101000020E6100000000000E017F251C000000040874942C0,4326
184,Catillo police checkpoint,-36.29144,-71.64631,False,0101000020E6100000000000205DE951C0000000E04D2542C0,4326
185,Locomilla River,-35.72554,-71.77325,False,0101000020E6100000000000E07CF151C000000080DEDC41C0,4326
186,Navy Mechanic School,-34.53842,-58.46361,True,0101000020E6100000000000A0573B4DC000000000EB4441C0,4326
187,Isla de Maipo Plaza,-33.74639,-70.90033,False,0101000020E6100000000000009FB951C0000000C089DF40C0,4326
188,"in the area of the Las Achupallas upgrade, Cajón del Maipo",-33.64058,-70.352394,False,0101000020E6100000000000A08D9651C000000080FED140C0,4326
189,athletic field in the La Bandera shantytown,-33.55194,-70.63889,True,0101000020E6100000000000A0E3A851C000000000A6C640C0,4326
190,"La Bandera shantytown, La Granja district",-33.54861,-70.64528,False,0101000020E6100000000000404CA951C0000000E038C640C0,4326
191,Tres Alamos,-33.51607,-70.75135,True,0101000020E61000000000002016B051C0000000A00EC240C0,4326
192,José Maria Caro shantytown,-33.51222,-70.69306,False,0101000020E6100000000000205BAC51C00000006090C140C0,4326
193,José María Caro shantytown,-33.51222,-70.69306,False,0101000020E6100000000000205BAC51C00000006090C140C0,4326
194,"José María Caro shantytown, Santiago",-33.51222,-70.69306,False,0101000020E6100000000000205BAC51C00000006090C140C0,4326
195,Indumet factory,-33.48943,-70.70145,True,0101000020E610000000000080E4AC51C0000000A0A5BE40C0,4326
196,Pasaje Juan Ramón Jiménez in Santiago,-33.479584,-70.73902,False,0101000020E6100000000000204CAF51C00000000063BD40C0,4326
197,Ñunoa district,-33.45449,-70.60383,False,0101000020E610000000000020A5A651C0000000C02CBA40C0,4326
198,21st Police station,-33.451637,-70.6923,True,0101000020E6100000000000A04EAC51C000000040CFB940C0,4326
199,Santiago governor's office,-33.443115,-70.65192,False,0101000020E610000000000000B9A951C000000000B8B840C0,4326
200,Pudahuel,-33.44211,-70.76406,False,0101000020E610000000000060E6B051C00000000097B840C0,4326
201,Quinta Normal district,-33.44111,-70.68361,False,0101000020E610000000000040C0AB51C00000004076B840C0,4326
202,Providencia district,-33.4333,-70.6167,False,0101000020E61000000000000078A751C00000006076B740C0,4326
203,"Clínica Bancaria de Pensiones, Dávila area",-33.42706,-70.64835,True,0101000020E6100000000000A07EA951C0000000E0A9B640C0,4326
204,Sixth police station,-33.40938,-70.64199,True,0101000020E61000000000006016A951C0000000A066B440C0,4326
205,Renca district,-33.40636,-70.728,False,0101000020E61000000000008097AE51C0000000A003B440C0,4326
206,Barriga upgrade,-33.39772,-71.12752,False,0101000020E61000000000004029C851C000000080E8B240C0,4326
207,Air War Academy,-33.377163,-70.50762,True,0101000020E6100000000000E07CA051C0000000E046B040C0,4326
208,Panamerican highway north,-33.36697,-70.69987,False,0101000020E6100000000000A0CAAC51C0000000E0F8AE40C0,4326
209,La Pincoya shantytown,-33.36667,-70.63417,False,0101000020E61000000000004096A851C000000000EFAE40C0,4326
210,HQ of Parachute and Special Forces Regiment of Peldehue,-33.17128,-70.63133,False,0101000020E6100000000000C067A851C000000080EC9540C0,4326
211,kilometer 115 on Route 68 at a place called La Planchada,-33.059338,-71.57976,False,0101000020E6100000000000C01AE551C000000060988740C0,4326
212,"""Laja"" ship",-33.031612,-71.62106,False,0101000020E610000000000080BFE751C0000000E00B8440C0,4326
213,"Mendoza, Argentina",-32.88962,-68.85269,False,0101000020E610000000000080923651C000000020DF7140C0,4326
214,Coquimbo,-29.959,-71.33892,False,0101000020E6100000000000E0B0D551C00000000081F53DC0,4326
215,"La Veleidosa mine, near Tocopilla",-22.09278,-70.19917,False,0101000020E610000000000040BF8C51C000000060C01736C0,4326
216,Caupolicán Regiment in Porvenir,-53.295727,-70.35597,True,0101000020E610000000000040C89651C000000060DAA54AC0,4326
217,Río Mayo near the border with Argentina,-45.591164,-71.45093,False,0101000020E610000000000000DCDC51C000000040ABCB46C0,4326
218,Puerto Aysén police station,-45.406193,-72.69644,True,0101000020E610000000000080922C52C000000020FEB346C0,4326
219,Gil de Castro police station,-42.48279,-73.76594,False,0101000020E610000000000020057152C000000020CC3D45C0,4326
220,Puerto Octay police station,-40.97684,-72.88196,False,0101000020E610000000000000723852C000000020097D44C0,4326
221,Mantilhue,-40.62008,-72.47261,False,0101000020E6100000000000403F1E52C0000000C05E4F44C0,4326
222,"fisherman's hut in Bahía Mansa (a port in the province of Osorno, 65km from the city of Osorno)",-40.58426,-73.73599,False,0101000020E6100000000000801A6F52C000000000C94A44C0,4326
223,Pichoy bridge,-39.687172,-73.10235,False,0101000020E6100000000000E08C4652C000000040F5D743C0,4326
224,Truthful section of Melipeuco,-38.85056,-71.69167,False,0101000020E61000000000006044EC51C000000020DF6C43C0,4326
225,Cajón police station,-38.677746,-72.5054,True,0101000020E610000000000080582052C000000060C05643C0,4326
226,Perquenco police station,-38.41611,-72.37562,False,0101000020E6100000000000200A1852C000000020433543C0,4326
227,road between Perquenco and Selva Oscura,-38.413525,-72.2549,False,0101000020E610000000000040501052C000000060EE3443C0,4326
228,Loncopangue,-37.77661,-71.7653,False,0101000020E6100000000000A0FAF051C00000000068E342C0,4326
229,Mulchén police station,-37.719135,-72.23704,True,0101000020E6100000000000A02B0F52C0000000A00CDC42C0,4326
230,Quilaco,-37.68755,-71.99866,False,0101000020E610000000000000EAFF51C0000000A001D842C0,4326
231,Investigative police headquarters,-37.473667,-72.35133,True,0101000020E6100000000000407C1652C000000020A1BC42C0,4326
232,El Tránsito neighborhood,-37.46292,-72.36123,False,0101000020E6100000000000601E1752C00000000041BB42C0,4326
233,"Paso Hondo, near the town of Tomé",-36.911022,-72.51853,False,0101000020E6100000000000A02F2152C0000000609C7442C0,4326
234,18 de Septiembre squatter settlement near the central railroad,-36.77972,-73.11306,False,0101000020E6100000000000603C4752C0000000E0CD6342C0,4326
235,Pilmaiquén River,-36.666733,-71.850006,False,0101000020E61000000000008066F651C000000080575542C0,4326
236,"Quilmo area, military installation",-36.63306,-72.085,False,0101000020E6100000000000A0700552C000000020085142C0,4326
237,Trabajadores al Poder neighborhood,-36.60626,-72.10234,False,0101000020E6100000000000C08C0652C0000000E0994D42C0,4326
238,banks of Ñuble River by the El Ala bridge,-36.57528,-72.21306,True,0101000020E6100000000000C0A20D52C0000000C0A24942C0,4326
239,Colonia Dignidad,-36.39222,-71.57917,True,0101000020E61000000000002011E551C000000040343242C0,4326
240,Parral city jail,-36.13996,-71.82444,False,0101000020E6100000000000A0C3F451C000000040EA1142C0,4326
241,Cauquenes,-35.96763,-72.32223,False,0101000020E6100000000000609F1452C000000040DBFB41C0,4326
242,Melozal checkpoint,-35.73084,-71.799,False,0101000020E6100000000000E022F351C0000000208CDD41C0,4326
243,Venecia estate,-35.51834,-71.68849,False,0101000020E61000000000004010EC51C00000000059C241C0,4326
244,El Culenar estate in Talca (belongs to army),-35.44972,-71.68972,False,0101000020E61000000000006024EC51C00000006090B941C0,4326
245,El Patagual agricultural cooperative,-34.30778,-71.38667,False,0101000020E610000000000040BFD851C000000060652741C0,4326
246,Rapel River,-33.96885,-71.69968,False,0101000020E610000000000080C7EC51C00000004003FC40C0,4326
247,Ranquil agricultural cooperative (now La Victoria estate),-33.80028,-70.75833,False,0101000020E61000000000008088B051C0000000A06FE640C0,4326
248,Linderos area,-33.76263,-70.736176,False,0101000020E6100000000000801DAF51C0000000E09DE140C0,4326
249,Buin Regiment,-33.73094,-70.74232,False,0101000020E61000000000002082AF51C0000000808FDD40C0,4326
250,Buin police station,-33.72883,-70.74427,True,0101000020E610000000000020A2AF51C0000000404ADD40C0,4326
251,"Maipo bridge, San Bernardo",-33.65444,-70.66167,True,0101000020E6100000000000C058AA51C0000000C0C4D340C0,4326
252,Compañía Manufacturera de Papeles y Cartones,-33.610954,-70.56741,True,0101000020E61000000000008050A451C0000000C033CE40C0,4326
253,Leaving the Compañía Manufacturera de Papeles y Cartones,-33.610954,-70.56741,True,0101000020E61000000000008050A451C0000000C033CE40C0,4326
254,"Cerro Chena detention site, in the Bajos de San Agustín area",-33.594036,-70.74274,False,0101000020E61000000000000089AF51C00000006009CC40C0,4326
255,Cerro Chena prison camp,-33.594036,-70.74274,False,0101000020E61000000000000089AF51C00000006009CC40C0,4326
256,Nido 18,-33.53777,-70.58662,True,0101000020E6100000000000208BA551C0000000A0D5C440C0,4326
257,San Ramón shantytown,-33.53472,-70.64556,False,0101000020E6100000000000E050A951C0000000C071C440C0,4326
258,building on Calle Marmiña No.150,-33.533047,-70.66143,True,0101000020E6100000000000E054AA51C0000000E03AC440C0,4326
259,La Cisterna district,-33.52645,-70.66135,False,0101000020E61000000000008053AA51C0000000C062C340C0,4326
260,area near the intersection of Santa Rosa and Sebastopol,-33.51703,-70.63671,True,0101000020E6100000000000E0BFA851C0000000002EC240C0,4326
261,San Joaquín,-33.4962,-70.62834,False,0101000020E6100000000000C036A851C00000008083BF40C0,4326
262,San Miguel,-33.49454,-70.65142,False,0101000020E6100000000000E0B0A951C0000000204DBF40C0,4326
263,Twelfth Police Station,-33.489765,-70.65088,True,0101000020E610000000000000A8A951C0000000A0B0BE40C0,4326
264,"La Victoria shantytown, Santiago",-33.48833,-70.67694,False,0101000020E61000000000000053AB51C0000000A081BE40C0,4326
265,"Sumar factory, Vicuña Mackenna Industrial belt",-33.48806,-70.62583,True,0101000020E6100000000000A00DA851C0000000C078BE40C0,4326
266,empty lot along the Lo Errazuriz road in the Maipú district,-33.47742,-70.72313,False,0101000020E6100000000000C047AE51C0000000201CBD40C0,4326
267,prison in Santiago,-33.475548,-70.65967,True,0101000020E61000000000000038AA51C0000000C0DEBC40C0,4326
268,In front of Escuela Haiti,-33.474724,-70.65155,True,0101000020E610000000000000B3A951C0000000C0C3BC40C0,4326
269,Grecia traffic circle,-33.469723,-70.57654,True,0101000020E610000000000000E6A451C0000000E01FBC40C0,4326
270,intersection of Calle Uspallata and Calle Antofagasta,-33.46783,-70.69639,False,0101000020E6100000000000A091AC51C0000000E0E1BB40C0,4326
271,National Stadium,-33.464443,-70.61056,True,0101000020E61000000000006013A751C0000000E072BB40C0,4326
272,"in the street, Ñunoa district",-33.45667,-70.59784,False,0101000020E61000000000000043A651C00000002074BA40C0,4326
273,Ñuñoa neighborhood,-33.45449,-70.60383,False,0101000020E610000000000020A5A651C0000000C02CBA40C0,4326
274,near the Central Railroad Station,-33.45152,-70.67861,False,0101000020E6100000000000606EAB51C000000060CBB940C0,4326
275,Military Hospital,-33.45043,-70.53847,True,0101000020E61000000000004076A251C0000000C0A7B940C0,4326
276,on the way to the police hospital,-33.449955,-70.60904,False,0101000020E610000000000080FAA651C00000002098B940C0,4326
277,Establishment where they were playing fuzball,-33.44889,-70.66927,False,0101000020E610000000000060D5AA51C00000004075B940C0,4326
278,in the street in Santiago,-33.44889,-70.66927,False,0101000020E610000000000060D5AA51C00000004075B940C0,4326
279,"in the street near his home, Santiago",-33.44889,-70.66927,False,0101000020E610000000000060D5AA51C00000004075B940C0,4326
280,"in the streets of Santiago, on way to Chile Films",-33.44889,-70.66927,False,0101000020E610000000000060D5AA51C00000004075B940C0,4326
281,near home,-33.44889,-70.66927,False,0101000020E610000000000060D5AA51C00000004075B940C0,4326
282,on the street in Santiago,-33.44889,-70.66927,False,0101000020E610000000000060D5AA51C00000004075B940C0,4326
283,street unknown,-33.44889,-70.66927,False,0101000020E610000000000060D5AA51C00000004075B940C0,4326
284,State Technical University,-33.448483,-70.65805,True,0101000020E6100000000000801DAA51C0000000E067B940C0,4326
285,"Calle Fuenteovejuna, eastern Santiago",-33.446793,-70.530594,False,0101000020E610000000000040F5A151C00000008030B940C0,4326
286,near the Plaza of the Constitution,-33.441742,-70.654076,False,0101000020E610000000000060DCA951C0000000008BB840C0,4326
287,"Quinta Normal, Infantry regiment No.3",-33.44028,-70.68036,False,0101000020E6100000000000008BAB51C0000000205BB840C0,4326
288,"Near Pio Nono Bridge, Mapocho river",-33.43583,-70.63528,True,0101000020E610000000000060A8A851C000000040C9B740C0,4326
289,near the central market,-33.433674,-70.65095,False,0101000020E610000000000020A9A951C0000000A082B740C0,4326
290,"Calle Eliodoro Yáñez, Providencia district",-33.431164,-70.608055,False,0101000020E610000000000060EAA651C00000006030B740C0,4326
291,"Antonio Varas Nº 240, Depto. 202, Providencia.",-33.429817,-70.61677,True,0101000020E61000000000002079A751C00000004004B740C0,4326
292,unidentified facility in Quinta Normal,-33.42671,-70.699,False,0101000020E610000000000060BCAC51C0000000609EB640C0,4326
293,bank of the Mapucho river under the Bulnes Bridge,-33.426575,-70.671425,True,0101000020E6100000000000A0F8AA51C0000000009AB640C0,4326
294,Mapocho River,-33.42364,-70.67777,False,0101000020E6100000000000A060AB51C0000000E039B640C0,4326
295,Military Academy,-33.411602,-70.58411,True,0101000020E61000000000000062A551C000000060AFB440C0,4326
296,Military Academy,-33.411545,-70.584206,True,0101000020E6100000000000A063A551C000000080ADB440C0,4326
297,intersection of Calle Cordillera and Avenida Apoquindo in Santiago,-33.407654,-70.56331,False,0101000020E6100000000000400DA451C0000000002EB440C0,4326
298,San Genaro shantytown,-33.40528,-70.72444,False,0101000020E6100000000000405DAE51C000000040E0B340C0,4326
299,near Calle Gálvez in downtown Santiago,-33.392117,-70.65182,False,0101000020E610000000000060B7A951C0000000E030B240C0,4326
300,along the road between Quilicura and the Pudahuel airport,-33.389614,-70.76408,False,0101000020E6100000000000A0E6B051C0000000E0DEB140C0,4326
301,Airolite factory,-33.3696,-70.69758,True,0101000020E610000000000020A5AC51C0000000004FAF40C0,4326
302,General San Martín highway,-33.35351,-70.69285,False,0101000020E6100000000000A057AC51C0000000E03FAD40C0,4326
303,military property in Peldehue,-33.17128,-70.63133,False,0101000020E6100000000000C067A851C000000080EC9540C0,4326
304,El Belloto naval air base,-33.03215,-71.40769,True,0101000020E6100000000000A017DA51C0000000801D8440C0,4326
305,Silva Palma navy base,-33.02108,-71.63784,True,0101000020E610000000000060D2E851C0000000C0B28240C0,4326
306,Quillota,-32.8803,-71.24972,False,0101000020E610000000000060FBCF51C0000000A0AD7040C0,4326
307,Quintero,-32.77231,-71.5333,False,0101000020E6100000000000A021E251C000000000DB6240C0,4326
308,San Felipe,-32.75,-70.72081,False,0101000020E6100000000000C021AE51C000000000006040C0,4326
309,SADEMI Mining Supply Company,-32.75,-70.71333,False,0101000020E610000000000040A7AD51C000000000006040C0,4326
310,Salamanca,-31.78249,-70.96071,False,0101000020E6100000000000407CBD51C00000004051C83FC0,4326
311,Ovalle police station,-30.604446,-71.19749,True,0101000020E6100000000000A0A3CC51C000000000BD9A3EC0,4326
312,Pablo Neruda shantytown in the Conchalí district,-30.6043,-71.19699,False,0101000020E6100000000000809BCC51C000000060B39A3EC0,4326
313,Five kilometres away from Antofagasta on the Salar del Carmen Road,-23.650726,-70.27747,False,0101000020E610000000000020C29151C00000000096A637C0,4326
314,"Baquedano train station, Antofagasta",-23.644054,-70.39755,True,0101000020E610000000000080719951C0000000C0E0A437C0,4326
315,Cerro Moreno base,-23.440966,-70.431984,True,0101000020E6100000000000A0A59B51C000000020E37037C0,4326
316,Investigative Police headquarters,-22.095478,-70.20374,True,0101000020E6100000000000200A8D51C000000040711836C0,4326
317,relative's house around the area of Remeco Alto,-22.0858,-70.19301,False,0101000020E6100000000000405A8C51C000000000F71536C0,4326
318,Tarapacá,-20.20288,-69.28775,False,0101000020E6100000000000806A5251C000000000F03334C0,4326
319,Investigative Police headquarters,-18.478485,-70.31089,True,0101000020E6100000000000A0E59351C0000000007E7A32C0,4326
320,Rancagua Regiment in the city of Arica,-18.472692,-70.31002,True,0101000020E610000000000060D79351C000000060027932C0,4326
321,Punta Arenas,-53.16383,-70.91707,False,0101000020E610000000000040B1BA51C000000060F8944AC0,4326
322,Highway 5 north of Frutillar,-41.059372,-73.09505,False,0101000020E610000000000040154652C000000080998744C0,4326
323,house of a police officier (from Rahue Third police station) on Calle Manuel Rodríguez,-40.57751,-73.12775,False,0101000020E6100000000000002D4852C0000000E0EB4944C0,4326
324,sawmill,-40.57619,-73.11495,False,0101000020E6100000000000605B4752C0000000A0C04944C0,4326
325,Rahue police station,-40.57466,-73.14973,False,0101000020E610000000000020954952C0000000808E4944C0,4326
326,"Rahue Third police station, Osorno",-40.57466,-73.14973,True,0101000020E610000000000020954952C0000000808E4944C0,4326
327,on the road between valdivia and Niebla,-39.848183,-73.317825,False,0101000020E610000000000040575452C00000004091EC43C0,4326
328,"in the area of Molco, Choshuenco, within the Panguipulli Complex",-39.835873,-72.08331,False,0101000020E610000000000000550552C0000000E0FDEA43C0,4326
329,along the Chilean-Argentinian border in the area of Paimún,-39.73437,-71.70925,False,0101000020E61000000000006064ED51C0000000E0FFDD43C0,4326
330,Paimún,-39.68604,-71.73524,False,0101000020E6100000000000200EEF51C000000020D0D743C0,4326
331,Gorbea police headquarters,-39.0973,-72.671585,True,0101000020E610000000000040FB2A52C000000060748C43C0,4326
332,on the way to Pitrufquén from Catrico,-39.065193,-72.46564,False,0101000020E610000000000000CD1D52C000000040588843C0,4326
333,"area of Las Cascada, Pitrufquén",-38.99389,-72.63889,False,0101000020E6100000000000A0E32852C0000000C0377F43C0,4326
334,Pitrufquén,-38.9833,-72.64173,False,0101000020E610000000000020122952C0000000C0DC7D43C0,4326
335,Los Laureles headquarters,-38.9667,-72.2333,False,0101000020E610000000000060EE0E52C0000000E0BC7B43C0,4326
336,4 kilometers east of Freire,-38.96424,-72.66675,False,0101000020E610000000000000AC2A52C0000000406C7B43C0,4326
337,El Robel peasant cooperative,-38.9573,-72.62693,False,0101000020E6100000000000A01F2852C0000000C0887A43C0,4326
338,Cunco checkpoint,-38.93206,-72.02798,False,0101000020E610000000000060CA0152C0000000C04D7743C0,4326
339,along the beach,-38.7833,-73.4,False,0101000020E6100000000000A0995952C000000020436443C0,4326
340,"in the area of Nahuentué, at the mouth of the Imperial River",-38.748436,-73.42644,False,0101000020E6100000000000C04A5B52C0000000C0CC5F43C0,4326
341,"Second Police station, Temuco",-38.74043,-72.58427,True,0101000020E6100000000000A0642552C000000060C65E43C0,4326
342,Carahue substation,-38.71111,-73.16833,True,0101000020E6100000000000E0C54A52C0000000A0055B43C0,4326
343,"Campo Lindo agricultural cooperative, Capetillo home",-38.61668,-72.38339,False,0101000020E610000000000080891852C000000060EF4E43C0,4326
344,Pillanlelbún checkpoint,-38.61496,-72.44956,False,0101000020E6100000000000A0C51C52C000000000B74E43C0,4326
345,"restaurant in the city of Lautaro, Ninth Region",-38.50843,-72.45413,False,0101000020E610000000000080101D52C000000040144143C0,4326
346,Huincaleo community,-38.40886,-72.78212,False,0101000020E6100000000000400E3252C000000080553443C0,4326
347,Fundo California,-38.23265,-72.35151,False,0101000020E6100000000000207F1652C000000080C71D43C0,4326
348,in the city of Angol,-37.80607,-72.7038,False,0101000020E6100000000000000B2D52C0000000402DE742C0,4326
349,warehouse under construction,-37.80607,-72.7038,False,0101000020E6100000000000000B2D52C0000000402DE742C0,4326
350,Mulchén police station,-37.71921,-72.23705,True,0101000020E6100000000000E02B0F52C0000000200FDC42C0,4326
351,Second station,-37.71917,-72.237045,True,0101000020E6100000000000C02B0F52C0000000C00DDC42C0,4326
352,Mulchén,-37.71788,-72.23743,False,0101000020E610000000000000320F52C000000080E3DB42C0,4326
353,Piulo Bridge over the Bío Bío river,-37.709816,-71.821815,True,0101000020E6100000000000A098F451C000000040DBDA42C0,4326
354,Huinquén (now Campo Lindo) estate,-37.68755,-71.99866,False,0101000020E610000000000000EAFF51C0000000A001D842C0,4326
355,Santa Bárbara,-37.67003,-72.02661,True,0101000020E610000000000000B40152C000000080C3D542C0,4326
356,Los Angeles police station,-37.47233,-72.35133,True,0101000020E6100000000000407C1652C00000004075BC42C0,4326
357,"Quillay-Loma, within the Las Canteras estate",-37.39472,-72.00278,False,0101000020E6100000000000802D0052C00000002086B242C0,4326
358,Villa Los Canelos,-37.32861,-71.67306,False,0101000020E61000000000006013EB51C0000000E00FAA42C0,4326
359,Shwager boarding house,-37.01667,-73.17778,False,0101000020E6100000000000C0604B52C000000040228242C0,4326
360,hotel in Concepción,-36.82014,-73.04439,False,0101000020E610000000000040D74252C000000060FA6842C0,4326
361,Lorenzo Arenas section of Concepción,-36.81528,-73.06972,False,0101000020E610000000000040764452C0000000205B6842C0,4326
362,"Fourth Police station, Concepción",-36.797188,-73.06618,False,0101000020E6100000000000403C4452C0000000400A6642C0,4326
363,Hualpencillo police station,-36.783054,-73.10186,False,0101000020E6100000000000E0844652C0000000203B6442C0,4326
364,"Libertad shantytown, Concepción",-36.73306,-73.11583,False,0101000020E6100000000000C0694752C0000000E0D45D42C0,4326
365,Pilmaiquén River Bridge,-36.66763,-71.85451,False,0101000020E610000000000040B0F651C0000000E0745542C0,4326
366,Pilmaiquén,-36.666733,-71.850006,False,0101000020E61000000000008066F651C000000080575542C0,4326
367,Pilmaiquén police station,-36.666733,-71.850006,False,0101000020E61000000000008066F651C000000080575542C0,4326
368,Second Station,-36.60277,-72.106735,True,0101000020E6100000000000C0D40652C0000000A0274D42C0,4326
369,Chillán regiment,-36.60054,-72.08863,True,0101000020E610000000000020AC0552C000000080DE4C42C0,4326
370,Ñuble river ?,-36.57528,-72.21306,False,0101000020E6100000000000C0A20D52C0000000C0A24942C0,4326
371,Coelemu,-36.4833,-72.7,False,0101000020E6100000000000C0CC2C52C0000000C0DC3D42C0,4326
372,Catillo,-36.29144,-71.64631,False,0101000020E6100000000000205DE951C0000000E04D2542C0,4326
373,public thoroughfare in Parral,-36.13996,-71.82444,False,0101000020E6100000000000A0C3F451C000000040EA1142C0,4326
374,Investigative police headquarters in Cauquenes,-35.963158,-72.31384,True,0101000020E610000000000000161452C0000000C048FB41C0,4326
375,Investigative police headquarters in Cauquenes,-35.963154,-72.31384,True,0101000020E610000000000000161452C0000000A048FB41C0,4326
376,Constitución jail,-35.3333,-72.4167,False,0101000020E610000000000040AB1A52C0000000A0A9AA41C0,4326
377,office of the governorship of Constitución,-35.3333,-72.4167,False,0101000020E610000000000040AB1A52C0000000A0A9AA41C0,4326
378,La Poza on Mutrún hill,-35.32278,-72.4125,True,0101000020E610000000000060661A52C0000000E050A941C0,4326
379,Los Queñes,-35.00056,-70.81598,False,0101000020E61000000000000039B451C000000060128041C0,4326
380,Curicó jail,-34.979908,-71.23434,True,0101000020E610000000000060FFCE51C0000000A06D7D41C0,4326
381,city of Curicó,-34.97799,-71.25288,False,0101000020E6100000000000202FD051C0000000C02E7D41C0,4326
382,"on the Panamerican highway, outskirts of Curicó",-34.964554,-71.19397,False,0101000020E6100000000000006ACC51C000000080767B41C0,4326
383,"El Banco prison site, Buenos Aires",-34.72358,-58.51254,True,0101000020E6100000000000E09A414DC0000000409E5C41C0,4326
384,"El Olimpo prison, Argentina",-34.63694,-58.48639,True,0101000020E610000000000000423E4DC000000040875141C0,4326
385,Tinguiririca River,-34.61936,-70.97354,False,0101000020E6100000000000804EBE51C000000040474F41C0,4326
386,Buenos Aires airport,-34.60368,-58.38156,False,0101000020E610000000000000D7304DC000000060454D41C0,4326
387,"Calle Córdova, Buenos Aires, Argentina",-34.5981,-58.410355,False,0101000020E61000000000008086344DC0000000808E4C41C0,4326
388,"Hotel Winston Palace, Buenos Aires",-34.59523,-58.393257,True,0101000020E61000000000004056324DC000000080304C41C0,4326
389,"Calle Malabia, in Argentina",-34.59366,-58.431435,False,0101000020E61000000000004039374DC000000000FD4B41C0,4326
390,Requegua area,-34.45028,-71.00944,False,0101000020E6100000000000A09AC051C0000000C0A23941C0,4326
391,hospital in Rancagua,-34.16482,-70.74227,True,0101000020E61000000000006081AF51C0000000E0181541C0,4326
392,offices of the Huiticalán cooperative,-33.812572,-70.737595,False,0101000020E6100000000000C034AF51C00000006002E840C0,4326
393,Paine police checkpoint,-33.8075,-70.74139,False,0101000020E6100000000000E072AF51C0000000205CE740C0,4326
394,Rangui agricultural cooperative,-33.80028,-70.75833,False,0101000020E61000000000008088B051C0000000A06FE640C0,4326
395,Sector of Isla de Maipo station,-33.749866,-70.902824,False,0101000020E6100000000000E0C7B951C0000000A0FBDF40C0,4326
396,near Buin,-33.73094,-70.74232,False,0101000020E61000000000002082AF51C0000000808FDD40C0,4326
397,"Lo Gallardo, near the city of San Antonio",-33.63144,-71.594765,False,0101000020E6100000000000A010E651C000000000D3D040C0,4326
398,Puente Alto,-33.61861,-70.59061,False,0101000020E610000000000080CCA551C0000000A02ECF40C0,4326
399,Puente Alto Regiment,-33.61861,-70.59061,False,0101000020E610000000000080CCA551C0000000A02ECF40C0,4326
400,Malloco police station,-33.60489,-70.86316,False,0101000020E6100000000000003EB751C0000000006DCD40C0,4326
401,Tacna Regiment,-33.596478,-70.704575,True,0101000020E6100000000000C017AD51C00000006059CC40C0,4326
402,Chena Regiment in San Bernardo,-33.594036,-70.74274,False,0101000020E61000000000000089AF51C00000006009CC40C0,4326
403,Military polytechnical school,-33.585857,-70.70056,False,0101000020E610000000000000D6AC51C000000060FDCA40C0,4326
404,"on Calle John Kennedy approaching Calle Vicuña Mackenna, Santiago",-33.57559,-70.64664,False,0101000020E61000000000008062A951C0000000E0ACC940C0,4326
405,Padre Hurtado neighborhood,-33.57497,-70.81499,False,0101000020E6100000000000C028B451C0000000A098C940C0,4326
406,El Bosque Air Base,-33.56199,-70.6889,True,0101000020E61000000000000017AC51C000000040EFC740C0,4326
407,Villa La Cisterna No.1 shantytown,-33.55972,-70.66639,False,0101000020E610000000000020A6AA51C0000000E0A4C740C0,4326
408,Tenth police station in La Cisterna,-33.54117,-70.66548,True,0101000020E61000000000004097AA51C00000000045C540C0,4326
409,Alongside the Metropolitan Cemetery,-33.52694,-70.68333,True,0101000020E6100000000000A0BBAB51C0000000C072C340C0,4326
410,near Metropolitan Cemetery,-33.52694,-70.68333,False,0101000020E6100000000000A0BBAB51C0000000C072C340C0,4326
411,at the bottom of the Maipú lagoon,-33.52535,-70.81292,False,0101000020E6100000000000E006B451C0000000A03EC340C0,4326
412,La Florida district,-33.52269,-70.59871,False,0101000020E61000000000004051A651C000000080E7C240C0,4326
413,Calle Rivadavia No.6674 in the San Joaquín district,-33.521683,-70.640076,True,0101000020E610000000000000F7A851C000000080C6C240C0,4326
414,Tres Alamos detention site,-33.51607,-70.75135,True,0101000020E61000000000002016B051C0000000A00EC240C0,4326
415,Ochagavia Bridge over Callejón Lo Ovalle,-33.51556,-70.65333,False,0101000020E610000000000020D0A951C0000000E0FDC140C0,4326
416,on the road to Lo Espejo,-33.51393,-70.69308,False,0101000020E6100000000000605BAC51C000000080C8C140C0,4326
417,Calle Varas Mena No. 417,-33.512733,-70.63299,True,0101000020E6100000000000E082A851C000000040A1C140C0,4326
418,block 800 Callejón Lo Ovalle,-33.512283,-70.66605,True,0101000020E6100000000000A0A0AA51C00000008092C140C0,4326
419,Maipú,-33.51126,-70.76723,False,0101000020E6100000000000401AB151C00000000071C140C0,4326
420,Maipú district,-33.51126,-70.76723,False,0101000020E6100000000000401AB151C00000000071C140C0,4326
421,Departmental traffic circle,-33.51004,-70.59068,True,0101000020E6100000000000C0CDA551C00000000049C140C0,4326
422,Departmental Traffic Circle in front of the Don Camilo apartment complex,-33.5099,-70.58864,False,0101000020E610000000000040ACA551C00000006044C140C0,4326
423,"Avenida Departmental, Santiago",-33.503315,-70.655045,False,0101000020E610000000000040ECA951C0000000A06CC040C0,4326
424,Gran Avenida,-33.501343,-70.65424,False,0101000020E610000000000020DFA951C0000000002CC040C0,4326
425,Vicuña Mackenna neighborhood,-33.50083,-70.61528,False,0101000020E6100000000000C060A751C0000000401BC040C0,4326
426,Cerillos hanger,-33.495625,-70.69402,True,0101000020E6100000000000E06AAC51C0000000A070BF40C0,4326
427,"International Trade Fair of Santiago (FISA, currently Cerillos Park)",-33.49556,-70.69861,True,0101000020E610000000000000B6AC51C0000000806EBF40C0,4326
428,El Pinar shantytown,-33.49278,-70.6225,False,0101000020E610000000000000D7A751C00000006013BF40C0,4326
429,Medical Legal Institute (by the Barros Luco Hospital),-33.484123,-70.64641,True,0101000020E6100000000000C05EA951C0000000C0F7BD40C0,4326
430,IRT company,-33.482563,-70.621185,True,0101000020E610000000000080C1A751C0000000A0C4BD40C0,4326
431,corner of Calle Rodrigo de Araya and Lo Plaza,-33.474476,-70.58807,True,0101000020E610000000000000A3A551C0000000A0BBBC40C0,4326
432,Macul Subofficers Training School,-33.4742,-70.60499,True,0101000020E610000000000020B8A651C0000000A0B2BC40C0,4326
433,home of Alarcon Jara,-33.47379,-70.703026,True,0101000020E610000000000060FEAC51C000000020A5BC40C0,4326
434,Calle Bío Bío in Santiago,-33.47355,-70.6386,False,0101000020E6100000000000E0DEA851C0000000409DBC40C0,4326
435,"Villa Francia, Maipú",-33.47167,-70.71222,False,0101000020E61000000000000095AD51C0000000A05FBC40C0,4326
436,Los Nogales shantytown,-33.47056,-70.69278,False,0101000020E61000000000008056AC51C0000000403BBC40C0,4326
437,La Faena shantytown,-33.46861,-70.56028,False,0101000020E6100000000000A0DBA351C000000060FBBB40C0,4326
438,laundromat on Calle Maule,-33.46621,-70.638,False,0101000020E610000000000000D5A851C0000000C0ACBB40C0,4326
439,area of Las Rejas near Cinco de Abril,-33.46448,-70.704956,False,0101000020E6100000000000001EAD51C00000002074BB40C0,4326
440,Calle Bascuñán,-33.463943,-70.67231,False,0101000020E61000000000002007AB51C00000008062BB40C0,4326
441,"Calle Bascuñan Guerrero, Santiago",-33.463943,-70.67231,False,0101000020E61000000000002007AB51C00000008062BB40C0,4326
442,near O'Higgins park,-33.46022,-70.6574,True,0101000020E6100000000000E012AA51C000000080E8BA40C0,4326
443,Isabel Riquelme shantytown,-33.45972,-70.70583,False,0101000020E6100000000000602CAD51C000000020D8BA40C0,4326
444,bicycle shop near the Club Hípico in Santiago,-33.457985,-70.670425,False,0101000020E610000000000040E8AA51C0000000409FBA40C0,4326
445,Police unit on Calle Las Perdices in La Reina district,-33.45528,-70.535,False,0101000020E6100000000000803DA251C0000000A046BA40C0,4326
446,"Villa la Reina, Santiago",-33.45528,-70.535,False,0101000020E6100000000000803DA251C0000000A046BA40C0,4326
447,"Avenida Irarrázaval, Santiago",-33.454594,-70.60136,False,0101000020E6100000000000A07CA651C00000002030BA40C0,4326
448,Second Police Station,-33.454506,-70.66626,True,0101000020E610000000000000A4AA51C0000000402DBA40C0,4326
449,near the intersection of Plaza Egaña and Avenida Larraín,-33.45338,-70.56978,False,0101000020E61000000000004077A451C00000006008BA40C0,4326
450,"Calle Villaseca No.185, Ñuñoa district, Santiago",-33.45206,-70.603386,True,0101000020E6100000000000E09DA651C000000020DDB940C0,4326
451,Army hospital,-33.450523,-70.538414,True,0101000020E61000000000006075A251C0000000C0AAB940C0,4326
452,between two banks in Santiago,-33.44889,-70.66927,False,0101000020E610000000000060D5AA51C00000004075B940C0,4326
453,central Santiago,-33.44889,-70.66927,False,0101000020E610000000000060D5AA51C00000004075B940C0,4326
454,Chilean Autos Company,-33.44889,-70.66927,False,0101000020E610000000000060D5AA51C00000004075B940C0,4326
455,In front of Muñoz's house,-33.44889,-70.66927,False,0101000020E610000000000060D5AA51C00000004075B940C0,4326
456,local police station,-33.44889,-70.66927,False,0101000020E610000000000060D5AA51C00000004075B940C0,4326
457,Local Prison,-33.44889,-70.66927,False,0101000020E610000000000060D5AA51C00000004075B940C0,4326
458,Metropolitan Region,-33.44889,-70.66927,False,0101000020E610000000000060D5AA51C00000004075B940C0,4326
459,on a bench on the sidewalk,-33.44889,-70.66927,False,0101000020E610000000000060D5AA51C00000004075B940C0,4326
460,On route to Nobis factory,-33.44889,-70.66927,False,0101000020E610000000000060D5AA51C00000004075B940C0,4326
461,on the street,-33.44889,-70.66927,False,0101000020E610000000000060D5AA51C00000004075B940C0,4326
462,on way to hospital,-33.44889,-70.66927,False,0101000020E610000000000060D5AA51C00000004075B940C0,4326
463,Pacheco's home,-33.44889,-70.66927,False,0101000020E610000000000060D5AA51C00000004075B940C0,4326
464,Peugeot Car Dealership,-33.44889,-70.66927,False,0101000020E610000000000060D5AA51C00000004075B940C0,4326
465,Calle San Isidoro Police station,-33.44841,-70.643524,True,0101000020E6100000000000802FA951C00000008065B940C0,4326
466,San Pedro estate of Las Barrancas near the west end of the Américo Vespucio beltway,-33.44222,-70.75389,False,0101000020E6100000000000C03FB051C0000000A09AB840C0,4326
467,"near the Plaza del Pedro de valdivia , Santiago",-33.439396,-70.60726,False,0101000020E610000000000060DDA651C0000000203EB840C0,4326
468,Capuchin Church Santiago,-33.438786,-70.66941,True,0101000020E6100000000000A0D7AA51C0000000202AB840C0,4326
469,near Hotel São Paulo,-33.438717,-70.64824,True,0101000020E6100000000000C07CA951C0000000E027B840C0,4326
470,Office of the governorship in Santiago,-33.43788,-70.65049,True,0101000020E6100000000000A0A1A951C0000000800CB840C0,4326
471,4000 block of Avenida San Pablo,-33.43768,-70.68968,True,0101000020E6100000000000C023AC51C0000000E005B840C0,4326
472,corner of Pedro de valdivia and Andacollo,-33.43755,-70.60771,False,0101000020E6100000000000C0E4A651C0000000A001B840C0,4326
473,Neurosurgery Institute,-33.43641,-70.62253,True,0101000020E610000000000080D7A751C000000040DCB740C0,4326
474,Central Headquarters of the Investigative Police,-33.433235,-70.65699,True,0101000020E6100000000000200CAA51C00000004074B740C0,4326
475,Corner of Calle Balmaceda and Calle Almirante Barroso,-33.43099,-70.66318,True,0101000020E61000000000008071AA51C0000000A02AB740C0,4326
476,"Mapocho River, northern bank, near the Manuel Rodriguez Bridge",-33.43012,-70.66051,False,0101000020E6100000000000C045AA51C0000000200EB740C0,4326
477,"Calle Janaqueo No.5707, Santiago",-33.430103,-70.71431,True,0101000020E610000000000040B7AD51C0000000A00DB740C0,4326
478,"Ninth Station, Santiago",-33.42716,-70.65107,True,0101000020E610000000000020ABA951C000000020ADB640C0,4326
479,Sports club located in the Cerro Navia area,-33.42417,-70.72,False,0101000020E61000000000008014AE51C0000000404BB640C0,4326
480,"Lo Amor shantytown, Santiago",-33.42389,-70.71611,False,0101000020E6100000000000C0D4AD51C00000000042B640C0,4326
481,José Joaquin Hospital,-33.42046,-70.6532,True,0101000020E610000000000000CEA951C0000000A0D1B540C0,4326
482,as he was leaving the headquarters of the federation on Calle Maruri,-33.41925,-70.65879,False,0101000020E6100000000000A029AA51C000000000AAB540C0,4326
483,Lot 29 of the General Cemetery,-33.414597,-70.64911,True,0101000020E6100000000000008BA951C00000008011B540C0,4326
484,"Mapocho River, area of El Resbalón Bridge",-33.412556,-70.746864,False,0101000020E6100000000000A0CCAF51C0000000A0CEB440C0,4326
485,in a stream near the road to La Herradura,-33.41237,-70.6067,False,0101000020E610000000000020D4A651C000000080C8B440C0,4326
486,Fifth Police station,-33.40688,-70.65692,True,0101000020E6100000000000000BAA51C0000000A014B440C0,4326
487,Ministry of Defense,-33.406845,-70.65692,True,0101000020E6100000000000000BAA51C00000008013B440C0,4326
488,Renca,-33.40636,-70.728,False,0101000020E61000000000008097AE51C0000000A003B440C0,4326
489,Quinta Bella shantytown,-33.40222,-70.63639,False,0101000020E6100000000000A0BAA851C0000000007CB340C0,4326
490,"Villa Brasil, Santiago",-33.39472,-70.66333,False,0101000020E61000000000000074AA51C00000002086B240C0,4326
491,Tenth Station in Algarrobo,-33.36528,-71.66889,False,0101000020E610000000000020CFEA51C000000080C1AE40C0,4326
492,Quilicura district,-33.35767,-70.72927,False,0101000020E610000000000060ACAE51C000000020C8AD40C0,4326
493,Sigdo Koppers,-33.32194,-70.72139,False,0101000020E6100000000000402BAE51C00000006035A940C0,4326
494,Kilometer 18 of the General San Martín highway,-33.288322,-70.70115,False,0101000020E6100000000000A0DFAC51C0000000C0E7A440C0,4326
495,Pesant community in Lampa,-33.28271,-70.87933,False,0101000020E61000000000000047B851C0000000E02FA440C0,4326
496,"Monedónico shantytown, Valparaíso",-33.05389,-71.63972,False,0101000020E610000000000020F1E851C0000000E0E58640C0,4326
497,"provincial capital building, Valparaíso",-33.047714,-71.61997,True,0101000020E6100000000000A0ADE751C0000000801B8640C0,4326
498,"""Maipo"" cargo ship",-33.031612,-71.62106,False,0101000020E610000000000080BFE751C0000000E00B8440C0,4326
499,Naval War Academy,-33.02108,-71.63784,True,0101000020E610000000000060D2E851C0000000C0B28240C0,4326
500,Limache,-33.009537,-71.25959,False,0101000020E6100000000000209DD051C000000080388140C0,4326
501,Avenida Valparaíso and Calle Yungay in Quillota,-32.884724,-71.25853,False,0101000020E6100000000000C08BD051C0000000A03E7140C0,4326
502,Military unit in Quillota,-32.88083,-71.24695,True,0101000020E610000000000000CECF51C000000000BF7040C0,4326
503,Military prosecutor's office in Quillota,-32.88063,-71.24705,True,0101000020E6100000000000A0CFCF51C000000080B87040C0,4326
504,detention center in San Felipe,-32.75582,-70.72749,True,0101000020E6100000000000408FAE51C0000000C0BE6040C0,4326
505,city of San Felipe,-32.75,-70.72081,False,0101000020E6100000000000C021AE51C000000000006040C0,4326
506,Illapel police station,-31.631699,-71.167305,True,0101000020E610000000000020B5CA51C000000000B7A13FC0,4326
507,Ovalle,-30.6043,-71.19699,False,0101000020E6100000000000809BCC51C000000060B39A3EC0,4326
508,area of Gualliguaica in a rural area of Vicuña,-30.0042,-70.8167,False,0101000020E6100000000000E044B451C00000004013013EC0,4326
509,MANESA tire plant,-29.959,-71.33892,False,0101000020E6100000000000E0B0D551C00000000081F53DC0,4326
510,La Serena Regiment,-29.908155,-71.2494,True,0101000020E610000000000020F6CF51C0000000E07CE83DC0,4326
511,Governor's office in Antofagasta,-23.646692,-70.39769,False,0101000020E6100000000000C0739951C0000000A08DA537C0,4326
512,Investigative police headquarters in Antofagasta,-23.645067,-70.397354,True,0101000020E6100000000000406E9951C00000002023A537C0,4326
513,Pedro de valdivia ,-22.597204,-69.66615,False,0101000020E610000000000040A26A51C000000060E29836C0,4326
514,María Elena,-22.345034,-69.660706,False,0101000020E610000000000000496A51C000000020545836C0,4326
515,Chuquicamata copper mine,-22.30914,-68.91888,True,0101000020E6100000000000E0CE3A51C0000000C0234F36C0,4326
516,Paredes' home,-22.0858,-70.19301,False,0101000020E6100000000000405A8C51C000000000F71536C0,4326
517,"public thoroughfare, Avenida Costanera, Tocopilla",-22.0858,-70.19301,False,0101000020E6100000000000405A8C51C000000000F71536C0,4326
518,public thoroughfare in Tocopilla,-22.0858,-70.19301,False,0101000020E6100000000000405A8C51C000000000F71536C0,4326
519,Arica,-18.47825,-70.3126,False,0101000020E6100000000000A0019451C0000000A06E7A32C0,4326
520,Putre,-18.197014,-69.55973,False,0101000020E6100000000000A0D26351C0000000806F3232C0,4326
521,Washington D.C,38.90719,-77.03687,False,0101000020E6100000000000205C4253C0000000C01E744340,4326
522,Dawson Island,-54.05927,-70.66495,False,0101000020E6100000000000808EAA51C00000002096074BC0,4326
523,Porvenir hospital,-53.2984,-70.35859,True,0101000020E610000000000020F39651C00000000032A64AC0,4326
524,on the way to a store in Punta Arenas,-53.16383,-70.91707,False,0101000020E610000000000040B1BA51C000000060F8944AC0,4326
525,outskirts of Punta Arenas,-53.16383,-70.91707,False,0101000020E610000000000040B1BA51C000000060F8944AC0,4326
526,Armed Forces Hospital in Punta Arenas,-53.149727,-70.8972,True,0101000020E6100000000000C06BB951C0000000402A934AC0,4326
527,a house in Cerro Sombrero used as an interrogation and detention center,-52.76468,-69.28623,False,0101000020E6100000000000A0515251C000000000E1614AC0,4326
528,repair shop of the National Petroleum Company in Cerro Sombrero,-52.76468,-69.28623,False,0101000020E6100000000000A0515251C000000000E1614AC0,4326
529,near the Hotel Céntrico in Comodoro Rivadiva,-45.86561,-67.48224,False,0101000020E610000000000000DDDE50C000000040CCEE46C0,4326
530,area of Valle Simpson,-45.71103,-72.07695,False,0101000020E6100000000000C0EC0452C00000000003DB46C0,4326
531,Coyhaique Regiment,-45.564842,-72.06696,True,0101000020E610000000000020490452C0000000C04CC846C0,4326
532,on the road between Coyhaique and Puerto Aysén,-45.460728,-72.372826,False,0101000020E610000000000060DC1752C000000020F9BA46C0,4326
533,electrical post near the dock of Puerto Cisnes,-44.72889,-72.68083,False,0101000020E6100000000000C0922B52C0000000404C5D46C0,4326
534,small boat in Puerto Cisnes,-44.72889,-72.68083,False,0101000020E6100000000000C0922B52C0000000404C5D46C0,4326
535,Puyuhuapi,-44.32529,-72.55946,False,0101000020E610000000000040CE2352C000000020A32946C0,4326
536,La Junta village,-43.971565,-72.40299,False,0101000020E6100000000000A0CA1952C0000000405CFC45C0,4326
537,Alto Palena,-43.87164,-71.82472,False,0101000020E610000000000040C8F451C0000000E091EF45C0,4326
538,house of a private citizen across the Palena River,-43.87164,-71.82472,False,0101000020E610000000000040C8F451C0000000E091EF45C0,4326
539,"area of Lago Yunge, Alto Palena, Chiloé",-43.617176,-71.803,False,0101000020E61000000000006064F351C0000000A0FFCE45C0,4326
540,Alto Palena,-43.61669,-71.8,False,0101000020E61000000000004033F351C0000000C0EFCE45C0,4326
541,Alto Palena police checkpoint,-43.61669,-71.8,False,0101000020E61000000000004033F351C0000000C0EFCE45C0,4326
542,Arrayán,-43.33996,-72.0232,False,0101000020E6100000000000207C0152C0000000C083AB45C0,4326
543,Lake Yelcho,-43.30222,-72.31139,True,0101000020E6100000000000E0ED1352C000000020AFA645C0,4326
544,on route towards Futalelfú checkpoint,-43.183304,-71.8667,False,0101000020E61000000000000078F751C000000080769745C0,4326
545,Quellón police station,-43.11694,-73.62167,True,0101000020E610000000000080C96752C0000000E0F78E45C0,4326
546,Castro hospital,-42.47673,-73.76857,True,0101000020E610000000000040307152C000000080053D45C0,4326
547,"Calle Chorrillos, Castro",-42.4753,-73.76823,False,0101000020E6100000000000A02A7152C0000000A0D63C45C0,4326
548,Quenac checkpoint,-42.46018,-73.33699,False,0101000020E610000000000040915552C000000020E73A45C0,4326
549,"Meulín Island, Chiloé",-41.8675,-73.8277,False,0101000020E610000000000000F97452C0000000400AEF44C0,4326
550,Puerto Montt jail,-41.46222,-73.00306,False,0101000020E610000000000020324052C0000000002ABB44C0,4326
551,Investigative police garrison at Puerto Mott,-41.45714,-72.9285,True,0101000020E6100000000000806C3B52C0000000A083BA44C0,4326
552,Chin-Chin prison,-41.42444,-72.95843,False,0101000020E6100000000000E0563D52C00000000054B644C0,4326
553,"El Encino peasant cooperative in Nochaco, Puerto Octay",-40.93743,-72.8768,False,0101000020E6100000000000801D3852C0000000C0FD7744C0,4326
554,Río Negro police station,-40.79925,-73.21805,True,0101000020E610000000000080F44D52C0000000E04D6644C0,4326
555,father in-law's house in Rio Negro,-40.7833,-73.2333,False,0101000020E610000000000060EE4E52C000000020436444C0,4326
556,Entre Lagos police station,-40.68599,-72.60416,True,0101000020E610000000000080AA2652C000000080CE5744C0,4326
557,Chiscaihue rural cooperative,-40.63063,-72.66598,False,0101000020E6100000000000609F2A52C000000080B85044C0,4326
558,Damas River,-40.6176,-73.073326,False,0101000020E610000000000060B14452C0000000800D4F44C0,4326
559,between Osorno and Bahía Mansa,-40.614155,-73.42259,False,0101000020E6100000000000C00B5B52C0000000A09C4E44C0,4326
560,Osorno hospital,-40.587906,-73.12728,True,0101000020E610000000000060254852C000000080404B44C0,4326
561,near his house,-40.585114,-73.12939,False,0101000020E6100000000000E0474852C000000000E54A44C0,4326
562,"Arauco Regiment, Osorno",-40.58064,-73.13627,True,0101000020E6100000000000A0B84852C000000060524A44C0,4326
563,"Rahue Alto, Osorno",-40.58056,-73.17194,False,0101000020E610000000000020014B52C0000000C04F4A44C0,4326
564,Osorno jail,-40.57918,-73.126945,True,0101000020E6100000000000E01F4852C0000000A0224A44C0,4326
565,house of local small farmers,-40.57619,-73.11495,False,0101000020E6100000000000605B4752C0000000A0C04944C0,4326
566,near the manor house of the Santa Margarita estate,-40.57619,-73.11495,False,0101000020E6100000000000605B4752C0000000A0C04944C0,4326
567,Osorno fairgrounds,-40.575752,-73.11374,False,0101000020E610000000000080474752C000000040B24944C0,4326
568,Lynch Junction in Osorno,-40.575405,-73.117226,False,0101000020E6100000000000A0804752C0000000E0A64944C0,4326
569,near the Osorno Penitentiary,-40.560635,-73.1554,False,0101000020E610000000000020F24952C0000000E0C24744C0,4326
570,"Quilacahui, Osorno (Tenth Region)",-40.56056,-73.16917,False,0101000020E6100000000000A0D34A52C000000060C04744C0,4326
571,El Cobre estate in Chahuilco,-40.55955,-73.17084,False,0101000020E610000000000000EF4A52C0000000609F4744C0,4326
572,Nilahue River,-40.31222,-72.15696,False,0101000020E6100000000000A00B0A52C0000000E0F62744C0,4326
573,arriving at hospital la Union,-40.284428,-73.07613,False,0101000020E610000000000060DF4452C000000020682444C0,4326
574,Quebrada Honda,-39.882572,-71.918724,False,0101000020E610000000000060CCFA51C000000020F8F043C0,4326
575,Choshuenco,-39.83403,-72.08254,False,0101000020E610000000000060480552C000000080C1EA43C0,4326
576,Cazadores Regiment in valdivia,-39.82847,-73.23011,False,0101000020E610000000000020BA4E52C0000000400BEA43C0,4326
577,"area of Escuela México, valdivia",-39.81757,-73.232574,False,0101000020E610000000000080E24E52C000000020A6E843C0,4326
578,along the road to Valdivia,-39.81738,-73.24253,False,0101000020E6100000000000A0854F52C0000000E09FE843C0,4326
579,valdivia fairgrounds,-39.81738,-73.24253,False,0101000020E6100000000000A0854F52C0000000E09FE843C0,4326
580,"Neltume, Tenth Region",-39.79995,-71.94998,False,0101000020E610000000000080CCFC51C0000000C064E643C0,4326
581,"Panguipulli Lumber and Forestry Complex, Huellelhue",-39.78723,-73.11595,False,0101000020E6100000000000C06B4752C000000000C4E443C0,4326
582,Carranco,-39.760353,-71.81828,False,0101000020E6100000000000C05EF451C00000004053E143C0,4326
583,Panguipulli,-39.64363,-72.33649,False,0101000020E610000000000000891552C00000008062D243C0,4326
584,Panguipulli Lumber and Forestry Complex,-39.64363,-72.33649,False,0101000020E610000000000000891552C00000008062D243C0,4326
585,"area of Maiquillahue, San José de la Mariquina",-39.54028,-72.96565,False,0101000020E610000000000040CD3D52C0000000E027C543C0,4326
586,Loncoleche factory,-39.37617,-72.63277,False,0101000020E6100000000000407F2852C00000006026B043C0,4326
587,Curarrehue,-39.36165,-71.58903,False,0101000020E6100000000000A0B2E551C0000000804AAE43C0,4326
588,"Puente Basa, municipality of Curarrehue",-39.33389,-71.52806,True,0101000020E6100000000000C0CBE151C0000000E0BCAA43C0,4326
589,Villarica,-39.28201,-72.23078,False,0101000020E610000000000020C50E52C0000000E018A443C0,4326
590,Villarrica,-39.28201,-72.23078,False,0101000020E610000000000020C50E52C0000000E018A443C0,4326
591,Toltén police headquarters,-39.24806,-73.21972,False,0101000020E6100000000000E00F4E52C000000060C09F43C0,4326
592,Toltén police headquarters,-39.20297,-73.20807,False,0101000020E610000000000000514D52C0000000E0FA9943C0,4326
593,Allipén,-38.98954,-72.49234,False,0101000020E610000000000080821F52C000000040A97E43C0,4326
594,town square in Pitrufquén,-38.986473,-72.637276,True,0101000020E610000000000020C92852C0000000C0447E43C0,4326
595,Pitrufquén,-38.986458,-72.644165,True,0101000020E6100000000000003A2952C000000040447E43C0,4326
596,a sawmill on the Los Laureles estate,-38.957745,-72.23054,False,0101000020E610000000000020C10E52C000000060977A43C0,4326
597,Cipolletti police station,-38.94614,-68.09888,False,0101000020E610000000000000540651C0000000201B7943C0,4326
598,"public thoroughfare in the city of Cipolletti in the province of Neuquén, Argentina",-38.93877,-67.99549,False,0101000020E610000000000020B6FF50C0000000A0297843C0,4326
599,Cunco,-38.93206,-72.02798,False,0101000020E610000000000060CA0152C0000000C04D7743C0,4326
600,Cunco hospital,-38.93206,-72.02798,False,0101000020E610000000000060CA0152C0000000C04D7743C0,4326
601,Cunco police headquarters,-38.93206,-72.02798,False,0101000020E610000000000060CA0152C0000000C04D7743C0,4326
602,Llaima checkpoint,-38.88685,-71.75133,False,0101000020E6100000000000C015F051C000000040847143C0,4326
603,Melipeuco,-38.85231,-71.69294,False,0101000020E61000000000002059EC51C000000080186D43C0,4326
604,at the mouth of the Imperial River,-38.789543,-73.40755,False,0101000020E610000000000040155A52C0000000C00F6543C0,4326
605,local police headquarters,-38.785,-73.39722,True,0101000020E6100000000000006C5952C0000000E07A6443C0,4326
606,"Maquehua Air Base, in Temuco",-38.77013,-72.63831,True,0101000020E610000000000020DA2852C0000000A0936243C0,4326
607,Maquehua air force base,-38.77013,-72.63831,True,0101000020E610000000000020DA2852C0000000A0936243C0,4326
608,Police station in Padre Las Casas,-38.758232,-72.59316,True,0101000020E610000000000060F62552C0000000C00D6143C0,4326
609,"on route to the Tucapel Regiment, Temuco",-38.74369,-72.59227,False,0101000020E6100000000000C0E72552C000000040315F43C0,4326
610,"on route to the Tucapel Regiment, Temuco",-38.74365,-72.59228,False,0101000020E6100000000000E0E72552C0000000E02F5F43C0,4326
611,"Tucapel Regiment, Temuco",-38.74365,-72.59228,True,0101000020E6100000000000E0E72552C0000000E02F5F43C0,4326
612,Nueva Imperial police station,-38.743332,-72.95,False,0101000020E6100000000000C0CC3C52C000000080255F43C0,4326
613,Second police station,-38.740486,-72.584305,True,0101000020E610000000000040652552C000000040C85E43C0,4326
614,Second police station in Temuco,-38.740486,-72.584305,True,0101000020E610000000000040652552C000000040C85E43C0,4326
615,Temuco police headquarters,-38.73777,-72.593094,False,0101000020E610000000000040F52552C0000000406F5E43C0,4326
616,Boarding house in Temuco,-38.7359,-72.59037,False,0101000020E6100000000000A0C82552C000000000325E43C0,4326
617,downtown Temuco,-38.7359,-72.59037,False,0101000020E6100000000000A0C82552C000000000325E43C0,4326
618,hotel in Temuco,-38.7359,-72.59037,False,0101000020E6100000000000A0C82552C000000000325E43C0,4326
619,in front of the post office in Temuco,-38.7359,-72.59037,False,0101000020E6100000000000A0C82552C000000000325E43C0,4326
620,outskirts of Temuco,-38.7359,-72.59037,False,0101000020E6100000000000A0C82552C000000000325E43C0,4326
621,property registry office in Temuco,-38.7359,-72.59037,False,0101000020E6100000000000A0C82552C000000000325E43C0,4326
622,Investigative police headquarters,-38.732273,-72.585724,True,0101000020E6100000000000807C2552C000000020BB5D43C0,4326
623,"Bahía Blanca, Argentina",-38.71832,-62.26635,False,0101000020E6100000000000C017224FC0000000E0F15B43C0,4326
624,estate in the area of Nilahue,-38.710453,-72.63441,False,0101000020E6100000000000209A2852C000000020F05A43C0,4326
625,Tribunal in Carahue,-38.70886,-73.16788,False,0101000020E610000000000080BE4A52C0000000E0BB5A43C0,4326
626,Warehouse of the ECA in Carahue,-38.70886,-73.16788,False,0101000020E610000000000080BE4A52C0000000E0BB5A43C0,4326
627,Campo Lindo agricultural cooperative,-38.54028,-72.44278,False,0101000020E610000000000080561C52C0000000E0274543C0,4326
628,8 kilometers away from the Panco indian reservation,-38.50843,-72.45413,False,0101000020E610000000000080101D52C000000040144143C0,4326
629,DINA custody,-38.50843,-72.45413,False,0101000020E610000000000080101D52C000000040144143C0,4326
630,Juan Catalán community in Lautaro,-38.50843,-72.45413,False,0101000020E610000000000080101D52C000000040144143C0,4326
631,Lautaro bakery,-38.50843,-72.45413,False,0101000020E610000000000080101D52C000000040144143C0,4326
632,Lautaro livestock fair,-38.50843,-72.45413,False,0101000020E610000000000080101D52C000000040144143C0,4326
633,Manuel Levinao reservation,-38.50843,-72.45413,False,0101000020E610000000000080101D52C000000040144143C0,4326
634,Panco indian reservation,-38.50843,-72.45413,False,0101000020E610000000000080101D52C000000040144143C0,4326
635,square in Lautaro,-38.50843,-72.45413,False,0101000020E610000000000080101D52C000000040144143C0,4326
636,hill of Muco Alto,-38.50306,-72.34152,False,0101000020E610000000000080DB1552C000000040644043C0,4326
637,on a bus from Curacautín to Lautaro,-38.485565,-72.146095,False,0101000020E6100000000000A0590952C000000000273E43C0,4326
638,Loquimay train station,-38.454193,-71.36978,False,0101000020E610000000000080AAD751C000000000233A43C0,4326
639,Police substation in Lonquimay,-38.45313,-71.37075,True,0101000020E610000000000060BAD751C000000020003A43C0,4326
640,on the street in Curacautín,-38.4402,-71.88767,False,0101000020E6100000000000A0CFF851C000000080583843C0,4326
641,Curacautín,-38.44018,-71.88767,False,0101000020E6100000000000A0CFF851C0000000E0573843C0,4326
642,"area of Chorillos, Curacautín",-38.44005,-71.88766,False,0101000020E610000000000060CFF851C000000080533843C0,4326
643,Curacautín police checkpoint,-38.438698,-71.88326,False,0101000020E61000000000006087F851C000000040273843C0,4326
644,in the street,-38.40886,-72.78212,False,0101000020E6100000000000400E3252C000000080553443C0,4326
645,"near a railroad station in Puá, Victoria",-38.318405,-72.3684,False,0101000020E6100000000000E0931752C000000080C12843C0,4326
646,Traiguén,-38.25056,-72.67028,False,0101000020E6100000000000E0E52A52C000000060122043C0,4326
647,Police station in Curacautín,-38.235756,-72.33508,True,0101000020E610000000000000721552C0000000402D1E43C0,4326
648,Victoria,-38.23265,-72.35151,False,0101000020E6100000000000207F1652C000000080C71D43C0,4326
649,Victoria jail,-38.228676,-72.32698,False,0101000020E610000000000040ED1452C000000040451D43C0,4326
650,on way to Collipulli,-37.95827,-72.43212,False,0101000020E6100000000000E0A71B52C0000000A0A8FA42C0,4326
651,police checkpoint in Angol,-37.799362,-72.712875,True,0101000020E6100000000000C09F2D52C00000008051E642C0,4326
652,Angol jail,-37.79917,-72.71278,False,0101000020E6100000000000409E2D52C0000000404BE642C0,4326
653,El Alamo checkpoint,-37.62889,-73.4625,False,0101000020E6100000000000A0995D52C0000000807FD042C0,4326
654,Duqueco Bridge,-37.542034,-72.31232,True,0101000020E610000000000000FD1352C00000006061C542C0,4326
655,Gimnasio IANSA,-37.48025,-72.365204,True,0101000020E6100000000000805F1752C0000000E078BD42C0,4326
656,Curanilahue police station,-37.47649,-73.34563,True,0101000020E6100000000000C01E5652C0000000A0FDBC42C0,4326
657,"Javiera Carrera neighborhood, Curanilahue, Eighth Region",-37.47624,-73.34212,False,0101000020E610000000000040E55552C000000060F5BC42C0,4326
658,Quilleco police station,-37.47416,-71.98362,False,0101000020E6100000000000A0F3FE51C000000040B1BC42C0,4326
659,Investigative police headquarters,-37.473618,-72.35132,True,0101000020E6100000000000007C1652C0000000809FBC42C0,4326
660,Los Angeles police station,-37.473602,-72.35132,True,0101000020E6100000000000007C1652C0000000009FBC42C0,4326
661,Los Angeles police station,-37.472286,-72.35129,True,0101000020E6100000000000807B1652C0000000E073BC42C0,4326
662,"First police station, Los Angeles",-37.472237,-72.351295,True,0101000020E6100000000000A07B1652C00000004072BC42C0,4326
663,Plaza de Armas [town's main square],-37.47056,-72.35139,True,0101000020E6100000000000207D1652C0000000403BBC42C0,4326
664,"Liceo de Hombres, Los Angeles",-37.470123,-72.35192,True,0101000020E6100000000000E0851652C0000000002DBC42C0,4326
665,"Contreras Gómez shantytown, Los Angeles",-37.46292,-72.36123,False,0101000020E6100000000000601E1752C00000000041BB42C0,4326
666,near Los Angeles,-37.46292,-72.36123,False,0101000020E6100000000000601E1752C00000000041BB42C0,4326
667,San Lorenzo estate,-37.46292,-72.36123,False,0101000020E6100000000000601E1752C00000000041BB42C0,4326
668,El Abanico police station,-37.34099,-71.532646,False,0101000020E6100000000000E016E251C000000080A5AB42C0,4326
669,union office,-37.32861,-71.67306,False,0101000020E61000000000006013EB51C0000000E00FAA42C0,4326
670,Alto Polcura checkpoint,-37.28917,-71.72583,False,0101000020E61000000000000074EE51C00000008003A542C0,4326
671,Cuatro Juntas area of Alto Polcura,-37.28917,-71.72583,False,0101000020E61000000000000074EE51C00000008003A542C0,4326
672,Lago Laja farming and forestry estate,-37.28862,-71.72512,False,0101000020E61000000000006068EE51C000000080F1A442C0,4326
673,Laja river,-37.28862,-71.72512,False,0101000020E61000000000006068EE51C000000080F1A442C0,4326
674,Polcura,-37.28862,-71.72512,False,0101000020E61000000000006068EE51C000000080F1A442C0,4326
675,Polcura estate,-37.28862,-71.72512,False,0101000020E61000000000006068EE51C000000080F1A442C0,4326
676,about the board a tran to Curacautín,-37.282112,-72.71692,False,0101000020E610000000000000E22D52C0000000401CA442C0,4326
677,"Home (Blanco Encalada 151, Laja )",-37.281425,-72.71284,True,0101000020E6100000000000209F2D52C0000000C005A442C0,4326
678,Barraca Burgos de Laja,-37.27667,-72.70528,False,0101000020E610000000000040232D52C0000000E069A342C0,4326
679,in the street,-37.27142,-72.71949,False,0101000020E6100000000000200C2E52C0000000E0BDA242C0,4326
680,Laja and San Rosendo,-37.27142,-72.71949,False,0101000020E6100000000000200C2E52C0000000E0BDA242C0,4326
681,"Home (Aníbal Pinto 225, San Rosendo)",-37.264442,-72.72331,True,0101000020E6100000000000C04A2E52C000000040D9A142C0,4326
682,San Rosendo railroad station,-37.2641,-72.727325,False,0101000020E6100000000000808C2E52C000000000CEA142C0,4326
683,"Home (Vallejos 133, San Rosendo)",-37.26394,-72.725815,True,0101000020E6100000000000C0732E52C0000000C0C8A142C0,4326
684,San Rosendo,-37.262035,-72.723114,False,0101000020E610000000000080472E52C0000000608AA142C0,4326
685,"Población Quinta Ferroviaria s/n, San Rosendo",-37.26111,-72.72583,False,0101000020E610000000000000742E52C0000000006CA142C0,4326
686,Arauco jail,-37.2441,-73.31317,True,0101000020E6100000000000000B5452C0000000A03E9F42C0,4326
687,San Rosendo police station,-37.230244,-72.716515,False,0101000020E610000000000060DB2D52C0000000A0789D42C0,4326
688,"Latorre 425, San Rosendo",-37.222233,-72.724556,False,0101000020E6100000000000205F2E52C000000020729C42C0,4326
689,Santa Juana hospital,-37.17497,-72.9457,False,0101000020E610000000000060863C52C000000060659642C0,4326
690,Santa Juana police headquarters,-37.17497,-72.9457,False,0101000020E610000000000060863C52C000000060659642C0,4326
691,military encampement along the Polcura River,-37.12688,-71.41609,False,0101000020E610000000000040A1DA51C0000000A03D9042C0,4326
692,Playa de Lota area,-37.09944,-73.165,False,0101000020E6100000000000608F4A52C000000080BA8C42C0,4326
693,Lota,-37.09206,-73.15458,False,0101000020E6100000000000A0E44952C0000000A0C88B42C0,4326
694,Lota hospital,-37.09064,-73.15556,True,0101000020E6100000000000C0F44952C0000000209A8B42C0,4326
695,Lota Bajo Hospital,-37.090637,-73.15556,True,0101000020E6100000000000C0F44952C0000000009A8B42C0,4326
696,Lota Alta substation,-37.088264,-73.1599,True,0101000020E6100000000000C03B4A52C0000000404C8B42C0,4326
697,Coronel,-37.03408,-73.14048,False,0101000020E6100000000000A0FD4852C0000000C05C8442C0,4326
698,near his home in the town of Coronel,-37.03408,-73.14048,False,0101000020E6100000000000A0FD4852C0000000C05C8442C0,4326
699,Coronel hospital,-37.028606,-73.13613,True,0101000020E610000000000060B64852C000000060A98342C0,4326
700,Schwager machine shop,-37.01667,-73.17778,False,0101000020E6100000000000C0604B52C000000040228242C0,4326
701,Lo Rojas checkpoint in Coronel,-37.0137,-73.155785,False,0101000020E610000000000060F84952C0000000E0C08142C0,4326
702,"in the area of General Cruz,between Pemuco and Iturra",-36.937336,-72.4015,False,0101000020E610000000000020B21952C0000000A0FA7742C0,4326
703,"in the area of General Cruz, towards Iturra",-36.937336,-72.4015,False,0101000020E610000000000020B21952C0000000A0FA7742C0,4326
704,Liucura,-36.8667,-72.3833,False,0101000020E610000000000000881852C000000000F06E42C0,4326
705,along the road from Chillán to Yungay,-36.865097,-72.09348,False,0101000020E6100000000000A0FB0552C000000080BB6E42C0,4326
706,university neighborhood in Concepción,-36.83083,-73.03778,True,0101000020E6100000000000006B4252C0000000A0586A42C0,4326
707,Concepción university neighborhood,-36.82767,-73.03733,True,0101000020E6100000000000A0634252C000000020F16942C0,4326
708,Concepción regional hospital,-36.825096,-73.03824,True,0101000020E610000000000080724252C0000000C09C6942C0,4326
709,Concepción regional hospital,-36.824986,-73.03826,True,0101000020E6100000000000E0724252C000000020996942C0,4326
710,"Corner of Calle Carrera and Calle Lincoyán, city of Concepción",-36.82492,-73.0556,True,0101000020E6100000000000008F4352C000000000976942C0,4326
711,city of Concepción,-36.82014,-73.04439,False,0101000020E610000000000040D74252C000000060FA6842C0,4326
712,Concepción city square,-36.82014,-73.04439,False,0101000020E610000000000040D74252C000000060FA6842C0,4326
713,"public thoroughfare, Concepción",-36.82014,-73.04439,False,0101000020E610000000000040D74252C000000060FA6842C0,4326
714,Laguna Redonda area in Concepción,-36.813892,-73.04444,True,0101000020E610000000000020D84252C0000000A02D6842C0,4326
715,"near Calle Paicaví, Concepción",-36.809788,-73.05092,False,0101000020E610000000000040424352C000000020A76742C0,4326
716,jail,-36.8042,-73.02194,True,0101000020E610000000000080674152C000000000F06642C0,4326
717,Fourth police station,-36.797344,-73.06614,True,0101000020E6100000000000A03B4452C0000000600F6642C0,4326
718,Fourth Police station,-36.797276,-73.0662,True,0101000020E6100000000000A03C4452C0000000200D6642C0,4326
719,inside school No.51 in the Bío Bío military neighborhood,-36.785667,-73.10408,True,0101000020E610000000000040A94652C0000000C0906442C0,4326
720,high voltage power lines in the area of Puente Perales in the city of Talcahuano,-36.78359,-73.0863,False,0101000020E610000000000000864552C0000000A04C6442C0,4326
721,"18 de Septiembre shantytown, Coronel",-36.77972,-73.11306,False,0101000020E6100000000000603C4752C0000000E0CD6342C0,4326
722,Hualpencillo,-36.77663,-73.1587,False,0101000020E610000000000020284A52C0000000A0686342C0,4326
723,"Hualpencillo, near Concepción",-36.77663,-73.1587,False,0101000020E610000000000020284A52C0000000A0686342C0,4326
724,"Hualpencillo, Talcahuano",-36.77663,-73.1587,False,0101000020E610000000000020284A52C0000000A0686342C0,4326
725,Penco police station,-36.73972,-72.99361,True,0101000020E610000000000040973F52C000000020AF5E42C0,4326
726,Penco police headquarters,-36.739243,-72.9925,True,0101000020E610000000000020853F52C0000000809F5E42C0,4326
727,"El Morro stadium, Talcahuano",-36.722713,-73.10735,True,0101000020E6100000000000E0DE4652C0000000E0815C42C0,4326
728,Arenal de Talcahuano police substation,-36.716324,-73.10961,False,0101000020E6100000000000E0034752C000000080B05B42C0,4326
729,police checkpoint in Villa Mora,-36.71111,-73.12417,False,0101000020E610000000000060F24752C0000000A0055B42C0,4326
730,gymnasium of the Talcahuano naval base,-36.704643,-73.11364,True,0101000020E6100000000000E0454752C0000000C0315A42C0,4326
731,navy base at Talcahuano,-36.704643,-73.11364,True,0101000020E6100000000000E0454752C0000000C0315A42C0,4326
732,Talcahuano naval base,-36.704643,-73.11364,True,0101000020E6100000000000E0454752C0000000C0315A42C0,4326
733,area of Pinto,-36.699585,-71.892204,False,0101000020E6100000000000E019F951C0000000008C5942C0,4326
734,Niblinto River near Minas del Prado,-36.687523,-71.73753,False,0101000020E6100000000000C033EF51C0000000C0005842C0,4326
735,Niblinto River near Minas del Prado,-36.68397,-71.73954,False,0101000020E6100000000000A054EF51C0000000608C5742C0,4326
736,Quinchamalí checkpoint,-36.64683,-72.4149,False,0101000020E6100000000000C08D1A52C000000060CB5242C0,4326
737,"near Quinchamalí, on a riverbank",-36.6445,-72.41199,False,0101000020E6100000000000005E1A52C0000000007F5242C0,4326
738,old bridge over the Ñuble River,-36.64147,-72.45016,False,0101000020E610000000000060CF1C52C0000000C01B5242C0,4326
739,navy base at Quiriquina Island,-36.6372,-73.05944,False,0101000020E6100000000000E0CD4352C0000000C08F5142C0,4326
740,Chillán river,-36.632298,-72.08241,False,0101000020E610000000000040460552C000000020EF5042C0,4326
741,Coihueco police unit,-36.62975,-71.83127,False,0101000020E61000000000008033F551C0000000A09B5042C0,4326
742,"Sixth Station, Chillán",-36.623657,-72.14491,True,0101000020E610000000000040460952C000000000D44F42C0,4326
743,Coihueco police unit,-36.62303,-72.07704,False,0101000020E610000000000040EE0452C000000080BF4F42C0,4326
744,Tomé police station,-36.618465,-72.9564,True,0101000020E6100000000000A0353D52C0000000E0294F42C0,4326
745,Department of Social Development (Tomé),-36.61316,-72.95886,False,0101000020E6100000000000005E3D52C0000000007C4E42C0,4326
746,Tomé prison,-36.61316,-72.95886,False,0101000020E6100000000000005E3D52C0000000007C4E42C0,4326
747,"Irene Frei shantytown, Chillán",-36.61194,-72.08778,False,0101000020E6100000000000409E0552C000000000544E42C0,4326
748,public thoroughfare,-36.60626,-72.10234,False,0101000020E6100000000000C08C0652C0000000E0994D42C0,4326
749,teacher training school,-36.60626,-72.10234,False,0101000020E6100000000000C08C0652C0000000E0994D42C0,4326
750,Chillán police station,-36.60512,-72.10189,True,0101000020E610000000000060850652C0000000A0744D42C0,4326
751,"Second Police station, Chillán",-36.60512,-72.10189,True,0101000020E610000000000060850652C0000000A0744D42C0,4326
752,Chillán police station,-36.60422,-72.10544,True,0101000020E610000000000080BF0652C000000020574D42C0,4326
753,Chillán jail,-36.604034,-72.098404,True,0101000020E6100000000000404C0652C000000000514D42C0,4326
754,Investigative Police headquarters,-36.60304,-72.10537,True,0101000020E610000000000060BE0652C000000060304D42C0,4326
755,Investigative Police headquarters,-36.60288,-72.105446,True,0101000020E6100000000000A0BF0652C0000000202B4D42C0,4326
756,Chillán Regiment,-36.60111,-72.08417,True,0101000020E610000000000000630552C000000020F14C42C0,4326
757,Santa Elvira sector of Chillán,-36.59722,-72.09528,False,0101000020E610000000000020190652C0000000C0714C42C0,4326
758,Ñuble river,-36.57528,-72.21306,False,0101000020E6100000000000C0A20D52C0000000C0A24942C0,4326
759,Ñuble River,-36.57528,-72.21306,False,0101000020E6100000000000C0A20D52C0000000C0A24942C0,4326
760,Cato River,-36.55722,-72.04444,False,0101000020E610000000000020D80252C000000000534742C0,4326
761,"Coelemu, Concepción",-36.4833,-72.7,False,0101000020E6100000000000C0CC2C52C0000000C0DC3D42C0,4326
762,San Carlos,-36.42615,-71.97083,False,0101000020E61000000000002022FE51C0000000208C3642C0,4326
763,municipal lagoon in San Carlos,-36.418293,-71.933914,False,0101000020E610000000000040C5FB51C0000000A08A3542C0,4326
764,transfer to Catillo,-36.29144,-71.64631,False,0101000020E6100000000000205DE951C0000000E04D2542C0,4326
765,Quirihue police station,-36.28202,-72.53986,True,0101000020E6100000000000208D2252C000000040192442C0,4326
766,on the road between Cobquecura and Quirihue,-36.20822,-72.644226,False,0101000020E6100000000000003B2952C000000000A71A42C0,4326
767,Parral jail,-36.144253,-71.82249,True,0101000020E6100000000000A0A3F451C0000000E0761242C0,4326
768,Parral prison,-36.144253,-71.82249,True,0101000020E6100000000000A0A3F451C0000000E0761242C0,4326
769,Parral hospital,-36.14204,-71.81425,True,0101000020E6100000000000A01CF451C0000000602E1242C0,4326
770,Parral plaza,-36.141457,-71.82226,True,0101000020E6100000000000E09FF451C0000000401B1242C0,4326
771,Investigative police headquarters in Parral,-36.140114,-71.8331,True,0101000020E61000000000008051F551C000000040EF1142C0,4326
772,on his way to work In Parral,-36.13996,-71.82444,False,0101000020E6100000000000A0C3F451C000000040EA1142C0,4326
773,"Torca, near Parral",-36.13996,-71.82444,False,0101000020E6100000000000A0C3F451C000000040EA1142C0,4326
774,Southern Highway,-36.13895,-71.80886,False,0101000020E610000000000060C4F351C000000020C91142C0,4326
775,Cobquecura police checkpoint,-36.13862,-72.79452,False,0101000020E610000000000060D93252C000000040BE1142C0,4326
776,road between Copihue and Parral,-36.119556,-71.81594,False,0101000020E61000000000006038F451C0000000A04D0F42C0,4326
777,Copihue checkpoint,-36.1,-71.81668,False,0101000020E61000000000008044F451C0000000C0CC0C42C0,4326
778,sawmill in Cauquenes,-35.96763,-72.32223,False,0101000020E6100000000000609F1452C000000040DBFB41C0,4326
779,Panamerican Highway six kilometres south of Linares,-35.875546,-71.63714,False,0101000020E6100000000000E0C6E851C0000000E011F041C0,4326
780,Linanres jail,-35.849113,-71.599434,True,0101000020E6100000000000205DE651C0000000C0AFEC41C0,4326
781,Linares jail,-35.849113,-71.599434,True,0101000020E6100000000000205DE651C0000000C0AFEC41C0,4326
782,Linares police HQ,-35.849106,-71.59928,True,0101000020E6100000000000A05AE651C000000080AFEC41C0,4326
783,Linares,-35.846443,-71.59961,False,0101000020E61000000000000060E651C00000004058EC41C0,4326
784,express train to Linares,-35.84641,-71.59961,False,0101000020E61000000000000060E651C00000002057EC41C0,4326
785,public thoroughfare in the city of Linares,-35.84641,-71.59961,False,0101000020E61000000000000060E651C00000002057EC41C0,4326
786,Artillery School,-35.84013,-71.59116,False,0101000020E6100000000000A0D5E551C00000006089EB41C0,4326
787,Linares artillery school,-35.84007,-71.59117,True,0101000020E6100000000000C0D5E551C00000006087EB41C0,4326
788,area of El Pillay,-35.787914,-71.999535,False,0101000020E610000000000060F8FF51C000000060DAE441C0,4326
789,Peñuelas sector in Yerbas Buenas,-35.75008,-71.58373,False,0101000020E6100000000000E05BE551C0000000A002E041C0,4326
790,"near Chanco, in the area of Curanipe",-35.73455,-72.53342,False,0101000020E610000000000080232252C0000000C005DE41C0,4326
791,Area of Paso Nevado - Maule Region,-35.72009,-71.19687,False,0101000020E61000000000008099CC51C0000000E02BDC41C0,4326
792,Paso Nevado,-35.71998,-71.196556,False,0101000020E61000000000006094CC51C00000004028DC41C0,4326
793,Pahuil estate,-35.61622,-72.57064,False,0101000020E610000000000060852452C000000040E0CE41C0,4326
794,San Javier police station,-35.596157,-71.732765,False,0101000020E6100000000000A0E5EE51C0000000E04ECC41C0,4326
795,El Candil estate,-35.5931,-71.7325,False,0101000020E610000000000040E1EE51C0000000C0EACB41C0,4326
796,El Sauce estate,-35.5931,-71.7325,False,0101000020E610000000000040E1EE51C0000000C0EACB41C0,4326
797,public thoroughfare,-35.5931,-71.7325,False,0101000020E610000000000040E1EE51C0000000C0EACB41C0,4326
798,Chequén bridge,-35.56158,-71.56207,False,0101000020E610000000000000F9E351C0000000E0E1C741C0,4326
799,Maule,-35.51834,-71.68849,False,0101000020E61000000000004010EC51C00000000059C241C0,4326
800,foothill region of Bajos de Lircay,-35.500103,-71.316696,False,0101000020E6100000000000C044D451C00000006003C041C0,4326
801,along the railroad tracks,-35.43028,-71.64944,False,0101000020E61000000000006090E951C00000006013B741C0,4326
802,Talca hospital,-35.4266,-71.64625,True,0101000020E6100000000000205CE951C0000000E09AB641C0,4326
803,video game parlor in the city of Talca,-35.42324,-71.64848,False,0101000020E6100000000000C080E951C0000000C02CB641C0,4326
804,"Pelarco, a small town in the farming province of Talca",-35.38472,-71.43556,False,0101000020E610000000000040E0DB51C0000000803EB141C0,4326
805,Investigative police headquarters in Constitución,-35.330845,-72.410255,True,0101000020E6100000000000A0411A52C00000002059AA41C0,4326
806,road between Sagrada Familia and the Peteroa estate,-35.08556,-71.48611,False,0101000020E6100000000000601CDF51C0000000A0F38A41C0,4326
807,"Los Queñes checkpoint, province of Curicó",-35.00056,-70.81598,False,0101000020E61000000000000039B451C000000060128041C0,4326
808,Barrio Norte police checkpoint,-34.97917,-71.24361,False,0101000020E61000000000004097CF51C000000080557D41C0,4326
809,Curicó,-34.97799,-71.25288,False,0101000020E6100000000000202FD051C0000000C02E7D41C0,4326
810,"Black Bridge, Romeral",-34.95639,-71.12389,False,0101000020E6100000000000E0EDC751C0000000006B7A41C0,4326
811,Ezeiza airport in Buenos Aires,-34.815144,-58.534893,True,0101000020E61000000000006077444DC0000000A0566841C0,4326
812,Quilmes neighborhood,-34.78056,-58.25778,False,0101000020E6100000000000E0FE204DC000000060E96341C0,4326
813,El Olimpo (Argentinian concentration camp),-34.63694,-58.48639,True,0101000020E610000000000000423E4DC000000040875141C0,4326
814,Santa Cruz prison,-34.636585,-71.371735,True,0101000020E610000000000080CAD751C0000000A07B5141C0,4326
815,"Automotores Orletti (site belonging to SIDE, a security agency with close ties to DINA)",-34.63083,-58.4775,True,0101000020E6100000000000C01E3D4DC000000000BF5041C0,4326
816,Argentinian federal police facility,-34.60928,-58.38532,True,0101000020E61000000000002052314DC0000000E0FC4D41C0,4326
817,"Argentina, in a house-to-house sweep",-34.60368,-58.38156,False,0101000020E610000000000000D7304DC000000060454D41C0,4326
818,outskirts of Buenos Aires,-34.60368,-58.38156,False,0101000020E610000000000000D7304DC000000060454D41C0,4326
819,public thoroughfare in Buenos Aires,-34.60368,-58.38156,False,0101000020E610000000000000D7304DC000000060454D41C0,4326
820,"Hotel Liberty, Buenos Aires",-34.603405,-58.375797,True,0101000020E6100000000000201A304DC0000000603C4D41C0,4326
821,San Fernando Regiment,-34.590626,-70.977104,True,0101000020E6100000000000E088BE51C0000000A0994B41C0,4326
822,San Fernando jail,-34.58966,-70.98367,True,0101000020E610000000000080F4BE51C0000000007A4B41C0,4326
823,San Fernando,-34.58586,-70.99078,False,0101000020E61000000000000069BF51C000000080FD4A41C0,4326
824,"San Fernando, on way to work from home",-34.58586,-70.99078,False,0101000020E61000000000000069BF51C000000080FD4A41C0,4326
825,Navy Mechanic School in Buenos Aires,-34.53842,-58.46361,True,0101000020E6100000000000A0573B4DC000000000EB4441C0,4326
826,"Navy Mechanic school, near Buenos Aires (Argentinian concetration camp)",-34.53842,-58.46361,True,0101000020E6100000000000A0573B4DC000000000EB4441C0,4326
827,Campo de Mayo (Argentinian concentration camp),-34.53333,-58.66667,True,0101000020E61000000000008055554DC000000020444441C0,4326
828,public thoroughfare in Rengo,-34.40238,-70.86744,False,0101000020E61000000000002084B751C000000040813341C0,4326
829,Near the police headquarters in Marchigüe,-34.398464,-71.6216,False,0101000020E610000000000040C8E751C0000000E0003341C0,4326
830,Police headquarters in Marchigüe,-34.398464,-71.6216,False,0101000020E610000000000040C8E751C0000000E0003341C0,4326
831,Papulla agricultural cooperative,-34.371944,-71.12453,False,0101000020E610000000000040F8C751C0000000E09B2F41C0,4326
832,El Patagual and Rangui agricultural cooperatives,-34.30778,-71.38667,False,0101000020E610000000000040BFD851C000000060652741C0,4326
833,Rancagua city,-34.17013,-70.74063,False,0101000020E61000000000008066AF51C0000000E0C61541C0,4326
834,Codegua marshlands in the area of La Leona in San Rafael de Melipilla,-34.04056,-70.65917,True,0101000020E6100000000000E02FAA51C000000020310541C0,4326
835,San Francisco de Mostazal,-33.97917,-70.71197,False,0101000020E6100000000000E090AD51C00000008055FD40C0,4326
836,school in Chada,-33.89833,-70.65917,False,0101000020E6100000000000E02FAA51C000000080FCF240C0,4326
837,"Calle Diego Portales, Santiago",-33.87048,-70.74633,False,0101000020E6100000000000E0C3AF51C0000000E06BEF40C0,4326
838,Huiticalán agricultural cooperative,-33.865,-70.85667,True,0101000020E6100000000000A0D3B651C000000060B8EE40C0,4326
839,"Huiticalán, Patagual, El Vínculo agricultural cooperatives",-33.865,-70.85667,True,0101000020E6100000000000A0D3B651C000000060B8EE40C0,4326
840,local business in Paine,-33.812572,-70.737595,False,0101000020E6100000000000C034AF51C00000006002E840C0,4326
841,on the Huiticalán cooperative,-33.812572,-70.737595,False,0101000020E6100000000000C034AF51C00000006002E840C0,4326
842,El Vínculo cooperative,-33.81257,-70.7376,False,0101000020E6100000000000E034AF51C00000004002E840C0,4326
843,Arco Iris agricultural cooperative,-33.80694,-70.73194,False,0101000020E610000000000020D8AE51C0000000C049E740C0,4326
844,between Rancagua and Santiago,-33.802788,-70.74854,False,0101000020E610000000000020E8AF51C0000000C0C1E640C0,4326
845,"Calle 24 de Abril, Paine area",-33.788525,-70.678055,False,0101000020E61000000000004065AB51C000000060EEE440C0,4326
846,Viluco Bridge within El Carmen vineyard,-33.75056,-70.75639,False,0101000020E6100000000000C068B051C00000006012E040C0,4326
847,Buin hospital,-33.734516,-70.73932,True,0101000020E61000000000000051AF51C0000000A004DE40C0,4326
848,Buin,-33.73094,-70.74232,False,0101000020E61000000000002082AF51C0000000808FDD40C0,4326
849,Buin Regiment Headquarters,-33.73094,-70.74232,False,0101000020E61000000000002082AF51C0000000808FDD40C0,4326
850,irrigation canal along the road to Lonquén,-33.71552,-70.85489,False,0101000020E610000000000080B6B651C00000002096DB40C0,4326
851,"alongside the Panamerican highway south, Santiago",-33.705,-70.72321,False,0101000020E61000000000002049AE51C0000000803DDA40C0,4326
852,Melipilla prison,-33.685894,-71.21804,False,0101000020E610000000000060F4CD51C000000060CBD740C0,4326
853,"Calle Ricardo Santa Cruz No.651, Santiago",-33.675034,-71.213875,True,0101000020E610000000000020B0CD51C00000008067D640C0,4326
854,Talagante station,-33.669582,-70.9391,True,0101000020E6100000000000401ABC51C0000000E0B4D540C0,4326
855,"Las Rocas beach, Santo Domingo",-33.64791,-71.6258,False,0101000020E6100000000000200DE851C0000000C0EED240C0,4326
856,on the metro on the way to the Carozzi company,-33.647503,-70.711006,False,0101000020E61000000000002081AD51C000000060E1D240C0,4326
857,Maipó River,-33.641304,-70.60688,False,0101000020E610000000000020D7A651C00000004016D240C0,4326
858,area of Cajón del Maipo,-33.64058,-70.352394,False,0101000020E6100000000000A08D9651C000000080FED140C0,4326
859,Cajón del Maipo,-33.64058,-70.352394,False,0101000020E6100000000000A08D9651C000000080FED140C0,4326
860,"in the area of the Las Achuapallas upgrade, Cajón del Maipo",-33.64058,-70.352394,False,0101000020E6100000000000A08D9651C000000080FED140C0,4326
861,Cajón del Maipo,-33.640575,-70.35239,True,0101000020E6100000000000808D9651C000000060FED140C0,4326
862,empty lot in the area of Nos,-33.63861,-70.70889,False,0101000020E6100000000000805EAD51C000000000BED140C0,4326
863,San Bernardo,-33.63806,-70.72722,False,0101000020E6100000000000C08AAE51C000000000ACD140C0,4326
864,Calle Oscar Bonilla,-33.62229,-70.59232,False,0101000020E6100000000000A0E8A551C000000040A7CF40C0,4326
865,Military Engineering School,-33.61964,-71.60417,True,0101000020E6100000000000C0AAE651C00000006050CF40C0,4326
866,Tejas Verdes Engineering School in San Antonio,-33.61964,-71.60417,True,0101000020E6100000000000C0AAE651C00000006050CF40C0,4326
867,Tejas Verdes prison camp in San Antonio,-33.61964,-71.60417,True,0101000020E6100000000000C0AAE651C00000006050CF40C0,4326
868,"a land occupation in the Puente Alto district, Santiago",-33.61861,-70.59061,False,0101000020E610000000000080CCA551C0000000A02ECF40C0,4326
869,Puente Alto city,-33.61861,-70.59061,False,0101000020E610000000000080CCA551C0000000A02ECF40C0,4326
870,Near bus stop 46 on Avenida Santa Rosa,-33.614143,-70.62651,False,0101000020E6100000000000C018A851C0000000409CCE40C0,4326
871,intersection of Barros Arena and Eucaliptus,-33.613564,-70.70665,False,0101000020E6100000000000C039AD51C00000004089CE40C0,4326
872,Hospital in Peña Flor,-33.61023,-70.90367,True,0101000020E6100000000000C0D5B951C0000000001CCE40C0,4326
873,Casas Viejas sector of Vista Hermosa and 12 de Mayo shantytowns,-33.60944,-70.52611,False,0101000020E6100000000000C0ABA151C00000002002CE40C0,4326
874,Casa Viejas,-33.60944,-70.52611,False,0101000020E6100000000000C0ABA151C00000002002CE40C0,4326
875,Peñaflor,-33.60603,-70.87818,False,0101000020E61000000000002034B851C00000006092CD40C0,4326
876,Malloco,-33.60489,-70.86316,False,0101000020E6100000000000003EB751C0000000006DCD40C0,4326
877,Malloco Police station,-33.60487,-70.86316,True,0101000020E6100000000000003EB751C0000000606CCD40C0,4326
878,"San Carlos shantytown, Santiago",-33.60472,-70.57139,False,0101000020E6100000000000A091A451C00000008067CD40C0,4326
